<Cities>
  <row>
    <id>1</id>
    <city>Qal eh-ye Now</city>
    <city_ascii>Qal eh-ye</city_ascii>
    <lat>34.983000130</lat>
    <lng>63.133299640</lng>
    <pop>2997.0</pop>
    <country>Afghanistan</country>
    <iso2>AF</iso2>
    <iso3>AFG</iso3>
    <province>Badghis</province>
  </row>
  <row>
    <id>2</id>
    <city>Chaghcharan</city>
    <city_ascii>Chaghcharan</city_ascii>
    <lat>34.516701100</lat>
    <lng>65.250000630</lng>
    <pop>15000.0</pop>
    <country>Afghanistan</country>
    <iso2>AF</iso2>
    <iso3>AFG</iso3>
    <province>Ghor</province>
  </row>
  <row>
    <id>3</id>
    <city>Lashkar Gah</city>
    <city_ascii>Lashkar Gah</city_ascii>
    <lat>31.582998020</lat>
    <lng>64.359999550</lng>
    <pop>201546.0</pop>
    <country>Afghanistan</country>
    <iso2>AF</iso2>
    <iso3>AFG</iso3>
    <province>Hilmand</province>
  </row>
  <row>
    <id>4</id>
    <city>Zaranj</city>
    <city_ascii>Zaranj</city_ascii>
    <lat>31.112001080</lat>
    <lng>61.886997520</lng>
    <pop>49851.0</pop>
    <country>Afghanistan</country>
    <iso2>AF</iso2>
    <iso3>AFG</iso3>
    <province>Nimroz</province>
  </row>
  <row>
    <id>5</id>
    <city>Tarin Kowt</city>
    <city_ascii>Tarin Kowt</city_ascii>
    <lat>32.633298150</lat>
    <lng>65.866698650</lng>
    <pop>10000.0</pop>
    <country>Afghanistan</country>
    <iso2>AF</iso2>
    <iso3>AFG</iso3>
    <province>Uruzgan</province>
  </row>
  <row>
    <id>6</id>
    <city>Zareh Sharan</city>
    <city_ascii>Zareh Sharan</city_ascii>
    <lat>32.850000160</lat>
    <lng>68.416704530</lng>
    <pop>13737.0</pop>
    <country>Afghanistan</country>
    <iso2>AF</iso2>
    <iso3>AFG</iso3>
    <province>Paktika</province>
  </row>
  <row>
    <id>7</id>
    <city>Asadabad</city>
    <city_ascii>Asadabad</city_ascii>
    <lat>34.866000040</lat>
    <lng>71.150004590</lng>
    <pop>48400.0</pop>
    <country>Afghanistan</country>
    <iso2>AF</iso2>
    <iso3>AFG</iso3>
    <province>Kunar</province>
  </row>
  <row>
    <id>8</id>
    <city>Taloqan</city>
    <city_ascii>Taloqan</city_ascii>
    <lat>36.729999040</lat>
    <lng>69.540003640</lng>
    <pop>64256.0</pop>
    <country>Afghanistan</country>
    <iso2>AF</iso2>
    <iso3>AFG</iso3>
    <province>Takhar</province>
  </row>
  <row>
    <id>9</id>
    <city>Mahmud-E Eraqi</city>
    <city_ascii>Mahmud-E Eraqi</city_ascii>
    <lat>35.016696080</lat>
    <lng>69.333300650</lng>
    <pop>7407.0</pop>
    <country>Afghanistan</country>
    <iso2>AF</iso2>
    <iso3>AFG</iso3>
    <province>Kapisa</province>
  </row>
  <row>
    <id>10</id>
    <city>Mehtar Lam</city>
    <city_ascii>Mehtar Lam</city_ascii>
    <lat>34.650000010</lat>
    <lng>70.166700520</lng>
    <pop>17345.0</pop>
    <country>Afghanistan</country>
    <iso2>AF</iso2>
    <iso3>AFG</iso3>
    <province>Laghman</province>
  </row>
  <row>
    <id>11</id>
    <city>Baraki Barak</city>
    <city_ascii>Baraki Barak</city_ascii>
    <lat>33.966702100</lat>
    <lng>68.966703540</lng>
    <pop>22305.0</pop>
    <country>Afghanistan</country>
    <iso2>AF</iso2>
    <iso3>AFG</iso3>
    <province>Logar</province>
  </row>
  <row>
    <id>12</id>
    <city>Aybak</city>
    <city_ascii>Aybak</city_ascii>
    <lat>36.261000150</lat>
    <lng>68.040000510</lng>
    <pop>24000.0</pop>
    <country>Afghanistan</country>
    <iso2>AF</iso2>
    <iso3>AFG</iso3>
    <province>Samangan</province>
  </row>
  <row>
    <id>13</id>
    <city>Mayda Shahr</city>
    <city_ascii>Mayda Shahr</city_ascii>
    <lat>34.450002090</lat>
    <lng>68.799996630</lng>
    <pop>35008.0</pop>
    <country>Afghanistan</country>
    <iso2>AF</iso2>
    <iso3>AFG</iso3>
    <province>Wardak</province>
  </row>
  <row>
    <id>14</id>
    <city>Karokh</city>
    <city_ascii>Karokh</city_ascii>
    <lat>34.486769630</lat>
    <lng>62.591776080</lng>
    <pop>14388.5</pop>
    <country>Afghanistan</country>
    <iso2>AF</iso2>
    <iso3>AFG</iso3>
    <province>Hirat</province>
  </row>
  <row>
    <id>15</id>
    <city>Sheberghan</city>
    <city_ascii>Sheberghan</city_ascii>
    <lat>36.657980770</lat>
    <lng>65.738302370</lng>
    <pop>74441.0</pop>
    <country>Afghanistan</country>
    <iso2>AF</iso2>
    <iso3>AFG</iso3>
    <province>Jawzjan</province>
  </row>
  <row>
    <id>16</id>
    <city>Pol-e Khomri</city>
    <city_ascii>Pol-e Khomri</city_ascii>
    <lat>35.951073020</lat>
    <lng>68.701118940</lng>
    <pop>41029.0</pop>
    <country>Afghanistan</country>
    <iso2>AF</iso2>
    <iso3>AFG</iso3>
    <province>Baghlan</province>
  </row>
  <row>
    <id>17</id>
    <city>Balkh</city>
    <city_ascii>Balkh</city_ascii>
    <lat>36.750119850</lat>
    <lng>66.899730180</lng>
    <pop>147426.0</pop>
    <country>Afghanistan</country>
    <iso2>AF</iso2>
    <iso3>AFG</iso3>
    <province>Balkh</province>
  </row>
  <row>
    <id>18</id>
    <city>Meymaneh</city>
    <city_ascii>Meymaneh</city_ascii>
    <lat>35.930221580</lat>
    <lng>64.770092730</lng>
    <pop>199795.0</pop>
    <country>Afghanistan</country>
    <iso2>AF</iso2>
    <iso3>AFG</iso3>
    <province>Faryab</province>
  </row>
  <row>
    <id>19</id>
    <city>Andkhvoy</city>
    <city_ascii>Andkhvoy</city_ascii>
    <lat>36.931659160</lat>
    <lng>65.101493690</lng>
    <pop>50469.0</pop>
    <country>Afghanistan</country>
    <iso2>AF</iso2>
    <iso3>AFG</iso3>
    <province>Faryab</province>
  </row>
  <row>
    <id>20</id>
    <city>Qalat</city>
    <city_ascii>Qalat</city_ascii>
    <lat>32.112263410</lat>
    <lng>66.886759400</lng>
    <pop>12191.0</pop>
    <country>Afghanistan</country>
    <iso2>AF</iso2>
    <iso3>AFG</iso3>
    <province>Zabul</province>
  </row>
  <row>
    <id>21</id>
    <city>Ghazni</city>
    <city_ascii>Ghazni</city_ascii>
    <lat>33.563311790</lat>
    <lng>68.417828730</lng>
    <pop>129892.5</pop>
    <country>Afghanistan</country>
    <iso2>AF</iso2>
    <iso3>AFG</iso3>
    <province>Ghazni</province>
  </row>
  <row>
    <id>22</id>
    <city>Feyzabad</city>
    <city_ascii>Feyzabad</city_ascii>
    <lat>37.129760760</lat>
    <lng>70.579247190</lng>
    <pop>52490.0</pop>
    <country>Afghanistan</country>
    <iso2>AF</iso2>
    <iso3>AFG</iso3>
    <province>Badakhshan</province>
  </row>
  <row>
    <id>23</id>
    <city>Kondoz</city>
    <city_ascii>Kondoz</city_ascii>
    <lat>36.727950660</lat>
    <lng>68.872529660</lng>
    <pop>210855.5</pop>
    <country>Afghanistan</country>
    <iso2>AF</iso2>
    <iso3>AFG</iso3>
    <province>Kunduz</province>
  </row>
  <row>
    <id>24</id>
    <city>Jalalabad</city>
    <city_ascii>Jalalabad</city_ascii>
    <lat>34.441526920</lat>
    <lng>70.436103470</lng>
    <pop>401697.0</pop>
    <country>Afghanistan</country>
    <iso2>AF</iso2>
    <iso3>AFG</iso3>
    <province>Nangarhar</province>
  </row>
  <row>
    <id>25</id>
    <city>Charikar</city>
    <city_ascii>Charikar</city_ascii>
    <lat>35.018261740</lat>
    <lng>69.167912150</lng>
    <pop>53676.0</pop>
    <country>Afghanistan</country>
    <iso2>AF</iso2>
    <iso3>AFG</iso3>
    <province>Parwan</province>
  </row>
  <row>
    <id>26</id>
    <city>Gardiz</city>
    <city_ascii>Gardiz</city_ascii>
    <lat>33.600053730</lat>
    <lng>69.214627640</lng>
    <pop>82680.5</pop>
    <country>Afghanistan</country>
    <iso2>AF</iso2>
    <iso3>AFG</iso3>
    <province>Paktya</province>
  </row>
  <row>
    <id>27</id>
    <city>Bamian</city>
    <city_ascii>Bamian</city_ascii>
    <lat>34.821064470</lat>
    <lng>67.521035930</lng>
    <pop>61863.0</pop>
    <country>Afghanistan</country>
    <iso2>AF</iso2>
    <iso3>AFG</iso3>
    <province>Bamyan</province>
  </row>
  <row>
    <id>28</id>
    <city>Baghlan</city>
    <city_ascii>Baghlan</city_ascii>
    <lat>36.139330260</lat>
    <lng>68.699258580</lng>
    <pop>163598.5</pop>
    <country>Afghanistan</country>
    <iso2>AF</iso2>
    <iso3>AFG</iso3>
    <province>Baghlan</province>
  </row>
  <row>
    <id>29</id>
    <city>Farah</city>
    <city_ascii>Farah</city_ascii>
    <lat>32.391729550</lat>
    <lng>62.096819210</lng>
    <pop>58604.0</pop>
    <country>Afghanistan</country>
    <iso2>AF</iso2>
    <iso3>AFG</iso3>
    <province>Farah</province>
  </row>
  <row>
    <id>30</id>
    <city>Herat</city>
    <city_ascii>Herat</city_ascii>
    <lat>34.330009170</lat>
    <lng>62.169993040</lng>
    <pop>439232.5</pop>
    <country>Afghanistan</country>
    <iso2>AF</iso2>
    <iso3>AFG</iso3>
    <province>Hirat</province>
  </row>
  <row>
    <id>31</id>
    <city>Mazar-e Sharif</city>
    <city_ascii>Mazar-e Sharif</city_ascii>
    <lat>36.699993710</lat>
    <lng>67.100028030</lng>
    <pop>365432.5</pop>
    <country>Afghanistan</country>
    <iso2>AF</iso2>
    <iso3>AFG</iso3>
    <province>Balkh</province>
  </row>
  <row>
    <id>32</id>
    <city>Kandahar</city>
    <city_ascii>Kandahar</city_ascii>
    <lat>31.610020160</lat>
    <lng>65.694945840</lng>
    <pop>613871.0</pop>
    <country>Afghanistan</country>
    <iso2>AF</iso2>
    <iso3>AFG</iso3>
    <province>Kandahar</province>
  </row>
  <row>
    <id>33</id>
    <city>Kabul</city>
    <city_ascii>Kabul</city_ascii>
    <lat>34.516690290</lat>
    <lng>69.183260050</lng>
    <pop>3160266.0</pop>
    <country>Afghanistan</country>
    <iso2>AF</iso2>
    <iso3>AFG</iso3>
    <province>Kabul</province>
  </row>
  <row>
    <id>34</id>
    <city>Mariehamn</city>
    <city_ascii>Mariehamn</city_ascii>
    <lat>60.096996180</lat>
    <lng>19.949004470</lng>
    <pop>10682.0</pop>
    <country>Aland</country>
    <iso2>AX</iso2>
    <iso3>ALD</iso3>
    <province>Finström</province>
  </row>
  <row>
    <id>35</id>
    <city>Kruje</city>
    <city_ascii>Kruje</city_ascii>
    <lat>41.518998170</lat>
    <lng>19.797003590</lng>
    <pop>21286.0</pop>
    <country>Albania</country>
    <iso2>AL</iso2>
    <iso3>ALB</iso3>
    <province>Durrës</province>
  </row>
  <row>
    <id>36</id>
    <city>Fier</city>
    <city_ascii>Fier</city_ascii>
    <lat>40.730004020</lat>
    <lng>19.573002600</lng>
    <pop>69747.5</pop>
    <country>Albania</country>
    <iso2>AL</iso2>
    <iso3>ALB</iso3>
    <province>Fier</province>
  </row>
  <row>
    <id>37</id>
    <city>Lushnje</city>
    <city_ascii>Lushnje</city_ascii>
    <lat>40.940001130</lat>
    <lng>19.716003480</lng>
    <pop>41469.0</pop>
    <country>Albania</country>
    <iso2>AL</iso2>
    <iso3>ALB</iso3>
    <province>Fier</province>
  </row>
  <row>
    <id>38</id>
    <city>Puke</city>
    <city_ascii>Puke</city_ascii>
    <lat>42.033303020</lat>
    <lng>19.883304480</lng>
    <pop>6495.0</pop>
    <country>Albania</country>
    <iso2>AL</iso2>
    <iso3>ALB</iso3>
    <province>Shkodër</province>
  </row>
  <row>
    <id>39</id>
    <city>Bajram Curri</city>
    <city_ascii>Bajram Curri</city_ascii>
    <lat>42.333300070</lat>
    <lng>20.083302570</lng>
    <pop>7967.0</pop>
    <country>Albania</country>
    <iso2>AL</iso2>
    <iso3>ALB</iso3>
    <province>Kukës</province>
  </row>
  <row>
    <id>40</id>
    <city>Kukes</city>
    <city_ascii>Kukes</city_ascii>
    <lat>42.083001070</lat>
    <lng>20.433996530</lng>
    <pop>17832.0</pop>
    <country>Albania</country>
    <iso2>AL</iso2>
    <iso3>ALB</iso3>
    <province>Kukës</province>
  </row>
  <row>
    <id>41</id>
    <city>Sarande</city>
    <city_ascii>Sarande</city_ascii>
    <lat>39.877002120</lat>
    <lng>19.999998590</lng>
    <pop>15147.0</pop>
    <country>Albania</country>
    <iso2>AL</iso2>
    <iso3>ALB</iso3>
    <province>Vlorë</province>
  </row>
  <row>
    <id>42</id>
    <city>Erseke</city>
    <city_ascii>Erseke</city_ascii>
    <lat>40.333302130</lat>
    <lng>20.683296510</lng>
    <pop>7890.0</pop>
    <country>Albania</country>
    <iso2>AL</iso2>
    <iso3>ALB</iso3>
    <province>Korçë</province>
  </row>
  <row>
    <id>43</id>
    <city>Pogradec</city>
    <city_ascii>Pogradec</city_ascii>
    <lat>40.899996120</lat>
    <lng>20.664000620</lng>
    <pop>35000.0</pop>
    <country>Albania</country>
    <iso2>AL</iso2>
    <iso3>ALB</iso3>
    <province>Korçë</province>
  </row>
  <row>
    <id>44</id>
    <city>Korce</city>
    <city_ascii>Korce</city_ascii>
    <lat>40.616676010</lat>
    <lng>20.766663530</lng>
    <pop>58259.0</pop>
    <country>Albania</country>
    <iso2>AL</iso2>
    <iso3>ALB</iso3>
    <province>Korçë</province>
  </row>
  <row>
    <id>45</id>
    <city>Berat</city>
    <city_ascii>Berat</city_ascii>
    <lat>40.709997050</lat>
    <lng>19.971999580</lng>
    <pop>46866.0</pop>
    <country>Albania</country>
    <iso2>AL</iso2>
    <iso3>ALB</iso3>
    <province>Berat</province>
  </row>
  <row>
    <id>46</id>
    <city>Corovode</city>
    <city_ascii>Corovode</city_ascii>
    <lat>40.516704030</lat>
    <lng>20.233296630</lng>
    <pop>14046.0</pop>
    <country>Albania</country>
    <iso2>AL</iso2>
    <iso3>ALB</iso3>
    <province>Berat</province>
  </row>
  <row>
    <id>47</id>
    <city>Gramsh</city>
    <city_ascii>Gramsh</city_ascii>
    <lat>40.866696010</lat>
    <lng>20.199996520</lng>
    <pop>11556.0</pop>
    <country>Albania</country>
    <iso2>AL</iso2>
    <iso3>ALB</iso3>
    <province>Elbasan</province>
  </row>
  <row>
    <id>48</id>
    <city>Librazhd</city>
    <city_ascii>Librazhd</city_ascii>
    <lat>41.200002110</lat>
    <lng>20.366703600</lng>
    <pop>12691.0</pop>
    <country>Albania</country>
    <iso2>AL</iso2>
    <iso3>ALB</iso3>
    <province>Elbasan</province>
  </row>
  <row>
    <id>49</id>
    <city>Tepelene</city>
    <city_ascii>Tepelene</city_ascii>
    <lat>40.283298100</lat>
    <lng>20.033298540</lng>
    <pop>11955.0</pop>
    <country>Albania</country>
    <iso2>AL</iso2>
    <iso3>ALB</iso3>
    <province>Gjirokastër</province>
  </row>
  <row>
    <id>50</id>
    <city>Permet</city>
    <city_ascii>Permet</city_ascii>
    <lat>40.233996050</lat>
    <lng>20.351997560</lng>
    <pop>10686.0</pop>
    <country>Albania</country>
    <iso2>AL</iso2>
    <iso3>ALB</iso3>
    <province>Gjirokastër</province>
  </row>
  <row>
    <id>51</id>
    <city>Gjirokaster</city>
    <city_ascii>Gjirokaster</city_ascii>
    <lat>40.078998090</lat>
    <lng>20.149002560</lng>
    <pop>23437.0</pop>
    <country>Albania</country>
    <iso2>AL</iso2>
    <iso3>ALB</iso3>
    <province>Gjirokastër</province>
  </row>
  <row>
    <id>52</id>
    <city>Peshkopi</city>
    <city_ascii>Peshkopi</city_ascii>
    <lat>41.683302100</lat>
    <lng>20.433303490</lng>
    <pop>14848.0</pop>
    <country>Albania</country>
    <iso2>AL</iso2>
    <iso3>ALB</iso3>
    <province>Dibër</province>
  </row>
  <row>
    <id>53</id>
    <city>Burrel</city>
    <city_ascii>Burrel</city_ascii>
    <lat>41.625999080</lat>
    <lng>20.016000530</lng>
    <pop>15405.0</pop>
    <country>Albania</country>
    <iso2>AL</iso2>
    <iso3>ALB</iso3>
    <province>Dibër</province>
  </row>
  <row>
    <id>54</id>
    <city>Lezhe</city>
    <city_ascii>Lezhe</city_ascii>
    <lat>41.787999140</lat>
    <lng>19.654002540</lng>
    <pop>18695.0</pop>
    <country>Albania</country>
    <iso2>AL</iso2>
    <iso3>ALB</iso3>
    <province>Lezhë</province>
  </row>
  <row>
    <id>55</id>
    <city>Rreshen</city>
    <city_ascii>Rreshen</city_ascii>
    <lat>41.783301060</lat>
    <lng>19.816704590</lng>
    <pop>10064.0</pop>
    <country>Albania</country>
    <iso2>AL</iso2>
    <iso3>ALB</iso3>
    <province>Lezhë</province>
  </row>
  <row>
    <id>56</id>
    <city>Vlore</city>
    <city_ascii>Vlore</city_ascii>
    <lat>40.477360050</lat>
    <lng>19.498230750</lng>
    <pop>89508.5</pop>
    <country>Albania</country>
    <iso2>AL</iso2>
    <iso3>ALB</iso3>
    <province>Vlorë</province>
  </row>
  <row>
    <id>57</id>
    <city>Elbasan</city>
    <city_ascii>Elbasan</city_ascii>
    <lat>41.121506770</lat>
    <lng>20.083828080</lng>
    <pop>132956.5</pop>
    <country>Albania</country>
    <iso2>AL</iso2>
    <iso3>ALB</iso3>
    <province>Elbasan</province>
  </row>
  <row>
    <id>58</id>
    <city>Durres</city>
    <city_ascii>Durres</city_ascii>
    <lat>41.317799700</lat>
    <lng>19.448207970</lng>
    <pop>132233.0</pop>
    <country>Albania</country>
    <iso2>AL</iso2>
    <iso3>ALB</iso3>
    <province>Durrës</province>
  </row>
  <row>
    <id>59</id>
    <city>Shkoder</city>
    <city_ascii>Shkoder</city_ascii>
    <lat>42.068451560</lat>
    <lng>19.518849650</lng>
    <pop>122006.0</pop>
    <country>Albania</country>
    <iso2>AL</iso2>
    <iso3>ALB</iso3>
    <province>Shkodër</province>
  </row>
  <row>
    <id>60</id>
    <city>Tirana</city>
    <city_ascii>Tirana</city_ascii>
    <lat>41.327540710</lat>
    <lng>19.818883010</lng>
    <pop>658318.0</pop>
    <country>Albania</country>
    <iso2>AL</iso2>
    <iso3>ALB</iso3>
    <province>Durrës</province>
  </row>
  <row>
    <id>61</id>
    <city>Jijel</city>
    <city_ascii>Jijel</city_ascii>
    <lat>36.821997030</lat>
    <lng>5.766003560</lng>
    <pop>148000.0</pop>
    <country>Algeria</country>
    <iso2>DZ</iso2>
    <iso3>DZA</iso3>
    <province>Jijel</province>
  </row>
  <row>
    <id>62</id>
    <city>Tizi-Ouzou</city>
    <city_ascii>Tizi-Ouzou</city_ascii>
    <lat>36.800001110</lat>
    <lng>4.033332556</lng>
    <pop>144000.0</pop>
    <country>Algeria</country>
    <iso2>DZ</iso2>
    <iso3>DZA</iso3>
    <province>Tizi Ouzou</province>
  </row>
  <row>
    <id>63</id>
    <city>Bordj Bou Arreridj</city>
    <city_ascii>Bordj Bou Arreridj</city_ascii>
    <lat>36.059004010</lat>
    <lng>4.629996466</lng>
    <pop>134500.0</pop>
    <country>Algeria</country>
    <iso2>DZ</iso2>
    <iso3>DZA</iso3>
    <province>Bordj Bou Arréridj</province>
  </row>
  <row>
    <id>64</id>
    <city>M'sila</city>
    <city_ascii>M'sila</city_ascii>
    <lat>35.700003100</lat>
    <lng>4.545000584</lng>
    <pop>125000.0</pop>
    <country>Algeria</country>
    <iso2>DZ</iso2>
    <iso3>DZA</iso3>
    <province>M'Sila</province>
  </row>
  <row>
    <id>65</id>
    <city>Guelma</city>
    <city_ascii>Guelma</city_ascii>
    <lat>36.466002130</lat>
    <lng>7.427997486</lng>
    <pop>123590.0</pop>
    <country>Algeria</country>
    <iso2>DZ</iso2>
    <iso3>DZA</iso3>
    <province>Guelma</province>
  </row>
  <row>
    <id>66</id>
    <city>Oum el Bouaghi</city>
    <city_ascii>Oum el Bouaghi</city_ascii>
    <lat>35.849997150</lat>
    <lng>7.149996522</lng>
    <pop>100821.0</pop>
    <country>Algeria</country>
    <iso2>DZ</iso2>
    <iso3>DZA</iso3>
    <province>Oum el Bouaghi</province>
  </row>
  <row>
    <id>67</id>
    <city>Timimoun</city>
    <city_ascii>Timimoun</city_ascii>
    <lat>29.236521630</lat>
    <lng>0.269998737</lng>
    <pop>26568.0</pop>
    <country>Algeria</country>
    <iso2>DZ</iso2>
    <iso3>DZA</iso3>
    <province>Adrar</province>
  </row>
  <row>
    <id>68</id>
    <city>Sidi bel Abbes</city>
    <city_ascii>Sidi bel Abbes</city_ascii>
    <lat>35.190344260</lat>
    <lng>-0.639971559</lng>
    <pop>200186.5</pop>
    <country>Algeria</country>
    <iso2>DZ</iso2>
    <iso3>DZA</iso3>
    <province>Sidi Bel Abbès</province>
  </row>
  <row>
    <id>69</id>
    <city>Tlimcen</city>
    <city_ascii>Tlimcen</city_ascii>
    <lat>34.890414240</lat>
    <lng>-1.320007570</lng>
    <pop>181059.0</pop>
    <country>Algeria</country>
    <iso2>DZ</iso2>
    <iso3>DZA</iso3>
    <province>Tlemcen</province>
  </row>
  <row>
    <id>70</id>
    <city>Beni Ounif</city>
    <city_ascii>Beni Ounif</city_ascii>
    <lat>32.049269840</lat>
    <lng>-1.251381268</lng>
    <pop>5628.0</pop>
    <country>Algeria</country>
    <iso2>DZ</iso2>
    <iso3>DZA</iso3>
    <province>Béchar</province>
  </row>
  <row>
    <id>71</id>
    <city>Abadla</city>
    <city_ascii>Abadla</city_ascii>
    <lat>31.017084780</lat>
    <lng>-2.733306317</lng>
    <pop>14364.0</pop>
    <country>Algeria</country>
    <iso2>DZ</iso2>
    <iso3>DZA</iso3>
    <province>Béchar</province>
  </row>
  <row>
    <id>72</id>
    <city>Sefra</city>
    <city_ascii>Sefra</city_ascii>
    <lat>32.760415060</lat>
    <lng>-0.579949383</lng>
    <pop>51118.0</pop>
    <country>Algeria</country>
    <iso2>DZ</iso2>
    <iso3>DZA</iso3>
    <province>Naâma</province>
  </row>
  <row>
    <id>73</id>
    <city>Skikda</city>
    <city_ascii>Skikda</city_ascii>
    <lat>36.880421980</lat>
    <lng>6.899981647</lng>
    <pop>193941.5</pop>
    <country>Algeria</country>
    <iso2>DZ</iso2>
    <iso3>DZA</iso3>
    <province>Skikda</province>
  </row>
  <row>
    <id>74</id>
    <city>Djanet</city>
    <city_ascii>Djanet</city_ascii>
    <lat>24.552905700</lat>
    <lng>9.482252969</lng>
    <pop>666.0</pop>
    <country>Algeria</country>
    <iso2>DZ</iso2>
    <iso3>DZA</iso3>
    <province>Illizi</province>
  </row>
  <row>
    <id>75</id>
    <city>I-n-Amenas</city>
    <city_ascii>I-n-Amenas</city_ascii>
    <lat>28.050340800</lat>
    <lng>9.550000772</lng>
    <pop>216.0</pop>
    <country>Algeria</country>
    <iso2>DZ</iso2>
    <iso3>DZA</iso3>
    <province>Illizi</province>
  </row>
  <row>
    <id>76</id>
    <city>In Amguel</city>
    <city_ascii>In Amguel</city_ascii>
    <lat>23.693940040</lat>
    <lng>5.164738727</lng>
    <pop>3030.0</pop>
    <country>Algeria</country>
    <iso2>DZ</iso2>
    <iso3>DZA</iso3>
    <province>Tamanghasset</province>
  </row>
  <row>
    <id>77</id>
    <city>El Bayadh</city>
    <city_ascii>El Bayadh</city_ascii>
    <lat>33.690358300</lat>
    <lng>1.009953571</lng>
    <pop>67413.0</pop>
    <country>Algeria</country>
    <iso2>DZ</iso2>
    <iso3>DZA</iso3>
    <province>El Bayadh</province>
  </row>
  <row>
    <id>78</id>
    <city>El Oued</city>
    <city_ascii>El Oued</city_ascii>
    <lat>33.370403670</lat>
    <lng>6.859984089</lng>
    <pop>177497.0</pop>
    <country>Algeria</country>
    <iso2>DZ</iso2>
    <iso3>DZA</iso3>
    <province>Biskra</province>
  </row>
  <row>
    <id>79</id>
    <city>Hassi Messaoud</city>
    <city_ascii>Hassi Messaoud</city_ascii>
    <lat>31.702340110</lat>
    <lng>6.054451862</lng>
    <pop>18124.0</pop>
    <country>Algeria</country>
    <iso2>DZ</iso2>
    <iso3>DZA</iso3>
    <province>Ouargla</province>
  </row>
  <row>
    <id>80</id>
    <city>Chlef</city>
    <city_ascii>Chlef</city_ascii>
    <lat>36.170413630</lat>
    <lng>1.319960489</lng>
    <pop>449167.0</pop>
    <country>Algeria</country>
    <iso2>DZ</iso2>
    <iso3>DZA</iso3>
    <province>Chlef</province>
  </row>
  <row>
    <id>81</id>
    <city>Mascara</city>
    <city_ascii>Mascara</city_ascii>
    <lat>35.400408950</lat>
    <lng>0.140032510</lng>
    <pop>108230.0</pop>
    <country>Algeria</country>
    <iso2>DZ</iso2>
    <iso3>DZA</iso3>
    <province>Mascara</province>
  </row>
  <row>
    <id>82</id>
    <city>Mostaganem</city>
    <city_ascii>Mostaganem</city_ascii>
    <lat>35.940376000</lat>
    <lng>0.089983885</lng>
    <pop>159177.0</pop>
    <country>Algeria</country>
    <iso2>DZ</iso2>
    <iso3>DZA</iso3>
    <province>Mostaganem</province>
  </row>
  <row>
    <id>83</id>
    <city>Saida</city>
    <city_ascii>Saida</city_ascii>
    <lat>34.840391460</lat>
    <lng>0.140032510</lng>
    <pop>134855.0</pop>
    <country>Algeria</country>
    <iso2>DZ</iso2>
    <iso3>DZA</iso3>
    <province>Saïda</province>
  </row>
  <row>
    <id>84</id>
    <city>Tiarat</city>
    <city_ascii>Tiarat</city_ascii>
    <lat>35.380436010</lat>
    <lng>1.319960489</lng>
    <pop>184195.0</pop>
    <country>Algeria</country>
    <iso2>DZ</iso2>
    <iso3>DZA</iso3>
    <province>Tiaret</province>
  </row>
  <row>
    <id>85</id>
    <city>Bejaia</city>
    <city_ascii>Bejaia</city_ascii>
    <lat>36.760377620</lat>
    <lng>5.070015827</lng>
    <pop>274520.0</pop>
    <country>Algeria</country>
    <iso2>DZ</iso2>
    <iso3>DZA</iso3>
    <province>Béjaïa</province>
  </row>
  <row>
    <id>86</id>
    <city>Blida</city>
    <city_ascii>Blida</city_ascii>
    <lat>36.420346700</lat>
    <lng>2.829997517</lng>
    <pop>388174.0</pop>
    <country>Algeria</country>
    <iso2>DZ</iso2>
    <iso3>DZA</iso3>
    <province>Blida</province>
  </row>
  <row>
    <id>87</id>
    <city>Bouira</city>
    <city_ascii>Bouira</city_ascii>
    <lat>36.380478330</lat>
    <lng>3.900009724</lng>
    <pop>110144.0</pop>
    <country>Algeria</country>
    <iso2>DZ</iso2>
    <iso3>DZA</iso3>
    <province>Bouira</province>
  </row>
  <row>
    <id>88</id>
    <city>Medea</city>
    <city_ascii>Medea</city_ascii>
    <lat>36.270407530</lat>
    <lng>2.770001179</lng>
    <pop>145863.5</pop>
    <country>Algeria</country>
    <iso2>DZ</iso2>
    <iso3>DZA</iso3>
    <province>Médéa</province>
  </row>
  <row>
    <id>89</id>
    <city>Souk Ahras</city>
    <city_ascii>Souk Ahras</city_ascii>
    <lat>36.290380470</lat>
    <lng>7.949995075</lng>
    <pop>134947.0</pop>
    <country>Algeria</country>
    <iso2>DZ</iso2>
    <iso3>DZA</iso3>
    <province>Souk Ahras</province>
  </row>
  <row>
    <id>90</id>
    <city>Tebessa</city>
    <city_ascii>Tebessa</city_ascii>
    <lat>35.410434180</lat>
    <lng>8.120010537</lng>
    <pop>171742.0</pop>
    <country>Algeria</country>
    <iso2>DZ</iso2>
    <iso3>DZA</iso3>
    <province>Tébessa</province>
  </row>
  <row>
    <id>91</id>
    <city>Adrar</city>
    <city_ascii>Adrar</city_ascii>
    <lat>27.869990050</lat>
    <lng>-0.289967083</lng>
    <pop>56910.0</pop>
    <country>Algeria</country>
    <iso2>DZ</iso2>
    <iso3>DZA</iso3>
    <province>Adrar</province>
  </row>
  <row>
    <id>92</id>
    <city>Reggane</city>
    <city_ascii>Reggane</city_ascii>
    <lat>26.699983950</lat>
    <lng>0.166645873</lng>
    <pop>22351.5</pop>
    <country>Algeria</country>
    <iso2>DZ</iso2>
    <iso3>DZA</iso3>
    <province>Adrar</province>
  </row>
  <row>
    <id>93</id>
    <city>Bechar</city>
    <city_ascii>Bechar</city_ascii>
    <lat>31.611105370</lat>
    <lng>-2.230003704</lng>
    <pop>142415.5</pop>
    <country>Algeria</country>
    <iso2>DZ</iso2>
    <iso3>DZA</iso3>
    <province>Béchar</province>
  </row>
  <row>
    <id>94</id>
    <city>Tindouf</city>
    <city_ascii>Tindouf</city_ascii>
    <lat>27.674188050</lat>
    <lng>-8.147782025</lng>
    <pop>18270.0</pop>
    <country>Algeria</country>
    <iso2>DZ</iso2>
    <iso3>DZA</iso3>
    <province>Tindouf</province>
  </row>
  <row>
    <id>95</id>
    <city>Illizi</city>
    <city_ascii>Illizi</city_ascii>
    <lat>26.483356340</lat>
    <lng>8.466604369</lng>
    <pop>7293.0</pop>
    <country>Algeria</country>
    <iso2>DZ</iso2>
    <iso3>DZA</iso3>
    <province>Illizi</province>
  </row>
  <row>
    <id>96</id>
    <city>Arak</city>
    <city_ascii>Arak</city_ascii>
    <lat>25.279993100</lat>
    <lng>3.749993041</lng>
    <pop>423251.0</pop>
    <country>Algeria</country>
    <iso2>DZ</iso2>
    <iso3>DZA</iso3>
    <province>Tamanghasset</province>
  </row>
  <row>
    <id>97</id>
    <city>I-n-Salah</city>
    <city_ascii>I-n-Salah</city_ascii>
    <lat>27.216644920</lat>
    <lng>2.466608845</lng>
    <pop>28632.0</pop>
    <country>Algeria</country>
    <iso2>DZ</iso2>
    <iso3>DZA</iso3>
    <province>Tamanghasset</province>
  </row>
  <row>
    <id>98</id>
    <city>El Golea</city>
    <city_ascii>El Golea</city_ascii>
    <lat>30.566621320</lat>
    <lng>2.883327595</lng>
    <pop>32049.0</pop>
    <country>Algeria</country>
    <iso2>DZ</iso2>
    <iso3>DZA</iso3>
    <province>Ghardaïa</province>
  </row>
  <row>
    <id>99</id>
    <city>Laghouat</city>
    <city_ascii>Laghouat</city_ascii>
    <lat>33.809989240</lat>
    <lng>2.880020303</lng>
    <pop>108279.0</pop>
    <country>Algeria</country>
    <iso2>DZ</iso2>
    <iso3>DZA</iso3>
    <province>Laghouat</province>
  </row>
  <row>
    <id>100</id>
    <city>Touggourt</city>
    <city_ascii>Touggourt</city_ascii>
    <lat>33.099980900</lat>
    <lng>6.059981240</lng>
    <pop>91499.0</pop>
    <country>Algeria</country>
    <iso2>DZ</iso2>
    <iso3>DZA</iso3>
    <province>Ouargla</province>
  </row>
  <row>
    <id>101</id>
    <city>Ouargla</city>
    <city_ascii>Ouargla</city_ascii>
    <lat>31.969972350</lat>
    <lng>5.340025186</lng>
    <pop>176271.0</pop>
    <country>Algeria</country>
    <iso2>DZ</iso2>
    <iso3>DZA</iso3>
    <province>Ouargla</province>
  </row>
  <row>
    <id>102</id>
    <city>Biskra</city>
    <city_ascii>Biskra</city_ascii>
    <lat>34.859976830</lat>
    <lng>5.730027220</lng>
    <pop>202103.0</pop>
    <country>Algeria</country>
    <iso2>DZ</iso2>
    <iso3>DZA</iso3>
    <province>Biskra</province>
  </row>
  <row>
    <id>103</id>
    <city>Djelfa</city>
    <city_ascii>Djelfa</city_ascii>
    <lat>34.679987810</lat>
    <lng>3.250023558</lng>
    <pop>170901.0</pop>
    <country>Algeria</country>
    <iso2>DZ</iso2>
    <iso3>DZA</iso3>
    <province>Djelfa</province>
  </row>
  <row>
    <id>104</id>
    <city>Setif</city>
    <city_ascii>Setif</city_ascii>
    <lat>36.180025450</lat>
    <lng>5.399969847</lng>
    <pop>274744.0</pop>
    <country>Algeria</country>
    <iso2>DZ</iso2>
    <iso3>DZA</iso3>
    <province>Sétif</province>
  </row>
  <row>
    <id>105</id>
    <city>Batna</city>
    <city_ascii>Batna</city_ascii>
    <lat>35.569959330</lat>
    <lng>6.170000365</lng>
    <pop>269467.0</pop>
    <country>Algeria</country>
    <iso2>DZ</iso2>
    <iso3>DZA</iso3>
    <province>Batna</province>
  </row>
  <row>
    <id>106</id>
    <city>Annaba</city>
    <city_ascii>Annaba</city_ascii>
    <lat>36.920006120</lat>
    <lng>7.759980834</lng>
    <pop>355047.0</pop>
    <country>Algeria</country>
    <iso2>DZ</iso2>
    <iso3>DZA</iso3>
    <province>Annaba</province>
  </row>
  <row>
    <id>107</id>
    <city>Constantine</city>
    <city_ascii>Constantine</city_ascii>
    <lat>36.359988630</lat>
    <lng>6.599948281</lng>
    <pop>527638.0</pop>
    <country>Algeria</country>
    <iso2>DZ</iso2>
    <iso3>DZA</iso3>
    <province>Constantine</province>
  </row>
  <row>
    <id>108</id>
    <city>Oran</city>
    <city_ascii>Oran</city_ascii>
    <lat>35.710002460</lat>
    <lng>-0.619972780</lng>
    <pop>721992.0</pop>
    <country>Algeria</country>
    <iso2>DZ</iso2>
    <iso3>DZA</iso3>
    <province>Oran</province>
  </row>
  <row>
    <id>109</id>
    <city>Tamanrasset</city>
    <city_ascii>Tamanrasset</city_ascii>
    <lat>22.785003270</lat>
    <lng>5.522804727</lng>
    <pop>71808.0</pop>
    <country>Algeria</country>
    <iso2>DZ</iso2>
    <iso3>DZA</iso3>
    <province>Tamanghasset</province>
  </row>
  <row>
    <id>110</id>
    <city>Ghardaia</city>
    <city_ascii>Ghardaia</city_ascii>
    <lat>32.489992290</lat>
    <lng>3.669997923</lng>
    <pop>125480.0</pop>
    <country>Algeria</country>
    <iso2>DZ</iso2>
    <iso3>DZA</iso3>
    <province>Ghardaïa</province>
  </row>
  <row>
    <id>111</id>
    <city>Algiers</city>
    <city_ascii>Algiers</city_ascii>
    <lat>36.763064800</lat>
    <lng>3.050552530</lng>
    <pop>2665831.5</pop>
    <country>Algeria</country>
    <iso2>DZ</iso2>
    <iso3>DZA</iso3>
    <province>Alger</province>
  </row>
  <row>
    <id>112</id>
    <city>Pago Pago</city>
    <city_ascii>Pago Pago</city_ascii>
    <lat>-14.276610500</lat>
    <lng>-170.706645100</lng>
    <pop>12038.0</pop>
    <country>American Samoa</country>
    <iso2>AS</iso2>
    <iso3>ASM</iso3>
    <province></province>
  </row>
  <row>
    <id>113</id>
    <city>Andorra</city>
    <city_ascii>Andorra</city_ascii>
    <lat>42.500001440</lat>
    <lng>1.516485961</lng>
    <pop>38127.0</pop>
    <country>Andorra</country>
    <iso2>AD</iso2>
    <iso3>AND</iso3>
    <province></province>
  </row>
  <row>
    <id>114</id>
    <city>Mucusso</city>
    <city_ascii>Mucusso</city_ascii>
    <lat>-18.019534490</lat>
    <lng>21.429999140</lng>
    <pop>100.0</pop>
    <country>Angola</country>
    <iso2>AO</iso2>
    <iso3>AGO</iso3>
    <province>Cuando Cubango</province>
  </row>
  <row>
    <id>115</id>
    <city>Lucapa</city>
    <city_ascii>Lucapa</city_ascii>
    <lat>-8.419603659</lat>
    <lng>20.740015420</lng>
    <pop>25578.0</pop>
    <country>Angola</country>
    <iso2>AO</iso2>
    <iso3>AGO</iso3>
    <province>Lunda Norte</province>
  </row>
  <row>
    <id>116</id>
    <city>Capenda-Camulemba</city>
    <city_ascii>Capenda-Camulemba</city_ascii>
    <lat>-9.419594300</lat>
    <lng>18.430027220</lng>
    <pop>79842.5</pop>
    <country>Angola</country>
    <iso2>AO</iso2>
    <iso3>AGO</iso3>
    <province>Lunda Norte</province>
  </row>
  <row>
    <id>117</id>
    <city>Saurimo</city>
    <city_ascii>Saurimo</city_ascii>
    <lat>-9.659579652</lat>
    <lng>20.390010940</lng>
    <pop>40907.0</pop>
    <country>Angola</country>
    <iso2>AO</iso2>
    <iso3>AGO</iso3>
    <province>Lunda Sul</province>
  </row>
  <row>
    <id>118</id>
    <city>Muconda</city>
    <city_ascii>Muconda</city_ascii>
    <lat>-10.599625630</lat>
    <lng>21.319980020</lng>
    <pop>2324.0</pop>
    <country>Angola</country>
    <iso2>AO</iso2>
    <iso3>AGO</iso3>
    <province>Lunda Sul</province>
  </row>
  <row>
    <id>119</id>
    <city>Cacolo</city>
    <city_ascii>Cacolo</city_ascii>
    <lat>-10.149627260</lat>
    <lng>19.260002400</lng>
    <pop>984.0</pop>
    <country>Angola</country>
    <iso2>AO</iso2>
    <iso3>AGO</iso3>
    <province>Lunda Sul</province>
  </row>
  <row>
    <id>120</id>
    <city>Caxito</city>
    <city_ascii>Caxito</city_ascii>
    <lat>-8.579542217</lat>
    <lng>13.659982460</lng>
    <pop>15665.5</pop>
    <country>Angola</country>
    <iso2>AO</iso2>
    <iso3>AGO</iso3>
    <province>Bengo</province>
  </row>
  <row>
    <id>121</id>
    <city>Camabatela</city>
    <city_ascii>Camabatela</city_ascii>
    <lat>-8.189591859</lat>
    <lng>15.370007280</lng>
    <pop>12731.0</pop>
    <country>Angola</country>
    <iso2>AO</iso2>
    <iso3>AGO</iso3>
    <province>Cuanza Norte</province>
  </row>
  <row>
    <id>122</id>
    <city>Ndalatando</city>
    <city_ascii>Ndalatando</city_ascii>
    <lat>-9.299549948</lat>
    <lng>14.909983680</lng>
    <pop>8144.0</pop>
    <country>Angola</country>
    <iso2>AO</iso2>
    <iso3>AGO</iso3>
    <province>Cuanza Norte</province>
  </row>
  <row>
    <id>123</id>
    <city>Quibala</city>
    <city_ascii>Quibala</city_ascii>
    <lat>-10.729591860</lat>
    <lng>14.979953570</lng>
    <pop>5248.5</pop>
    <country>Angola</country>
    <iso2>AO</iso2>
    <iso3>AGO</iso3>
    <province>Cuanza Sul</province>
  </row>
  <row>
    <id>124</id>
    <city>Calulo</city>
    <city_ascii>Calulo</city_ascii>
    <lat>-9.999610577</lat>
    <lng>14.900010130</lng>
    <pop>795.0</pop>
    <country>Angola</country>
    <iso2>AO</iso2>
    <iso3>AGO</iso3>
    <province>Cuanza Sul</province>
  </row>
  <row>
    <id>125</id>
    <city>Waku Kungo</city>
    <city_ascii>Waku Kungo</city_ascii>
    <lat>-11.359527570</lat>
    <lng>15.119996700</lng>
    <pop>11519.5</pop>
    <country>Angola</country>
    <iso2>AO</iso2>
    <iso3>AGO</iso3>
    <province>Cuanza Sul</province>
  </row>
  <row>
    <id>126</id>
    <city>Songo</city>
    <city_ascii>Songo</city_ascii>
    <lat>-7.349591452</lat>
    <lng>14.849987340</lng>
    <pop>10579.0</pop>
    <country>Angola</country>
    <iso2>AO</iso2>
    <iso3>AGO</iso3>
    <province>Uíge</province>
  </row>
  <row>
    <id>127</id>
    <city>Mbanza-Congo</city>
    <city_ascii>Mbanza-Congo</city_ascii>
    <lat>-6.269605694</lat>
    <lng>14.239998740</lng>
    <pop>42201.0</pop>
    <country>Angola</country>
    <iso2>AO</iso2>
    <iso3>AGO</iso3>
    <province>Zaire</province>
  </row>
  <row>
    <id>128</id>
    <city>Nzeto</city>
    <city_ascii>Nzeto</city_ascii>
    <lat>-7.229598776</lat>
    <lng>12.860031290</lng>
    <pop>19705.5</pop>
    <country>Angola</country>
    <iso2>AO</iso2>
    <iso3>AGO</iso3>
    <province>Zaire</province>
  </row>
  <row>
    <id>129</id>
    <city>Soyo</city>
    <city_ascii>Soyo</city_ascii>
    <lat>-6.129614239</lat>
    <lng>12.369983680</lng>
    <pop>65329.0</pop>
    <country>Angola</country>
    <iso2>AO</iso2>
    <iso3>AGO</iso3>
    <province>Zaire</province>
  </row>
  <row>
    <id>130</id>
    <city>Cabinda</city>
    <city_ascii>Cabinda</city_ascii>
    <lat>-5.559623190</lat>
    <lng>12.189994670</lng>
    <pop>78905.5</pop>
    <country>Angola</country>
    <iso2>AO</iso2>
    <iso3>AGO</iso3>
    <province>Cabinda</province>
  </row>
  <row>
    <id>131</id>
    <city>Calucinga</city>
    <city_ascii>Calucinga</city_ascii>
    <lat>-11.319581690</lat>
    <lng>16.199982460</lng>
    <pop>531.0</pop>
    <country>Angola</country>
    <iso2>AO</iso2>
    <iso3>AGO</iso3>
    <province>Bié</province>
  </row>
  <row>
    <id>132</id>
    <city>Camacupa</city>
    <city_ascii>Camacupa</city_ascii>
    <lat>-12.019590640</lat>
    <lng>17.469982460</lng>
    <pop>19489.0</pop>
    <country>Angola</country>
    <iso2>AO</iso2>
    <iso3>AGO</iso3>
    <province>Bié</province>
  </row>
  <row>
    <id>133</id>
    <city>Cubal</city>
    <city_ascii>Cubal</city_ascii>
    <lat>-13.039580060</lat>
    <lng>14.239998740</lng>
    <pop>4837.0</pop>
    <country>Angola</country>
    <iso2>AO</iso2>
    <iso3>AGO</iso3>
    <province>Benguela</province>
  </row>
  <row>
    <id>134</id>
    <city>Mavinga</city>
    <city_ascii>Mavinga</city_ascii>
    <lat>-15.789541400</lat>
    <lng>20.360038610</lng>
    <pop>30000.0</pop>
    <country>Angola</country>
    <iso2>AO</iso2>
    <iso3>AGO</iso3>
    <province>Cuando Cubango</province>
  </row>
  <row>
    <id>135</id>
    <city>Cuito Caunavale</city>
    <city_ascii>Cuito Caunavale</city_ascii>
    <lat>-15.159605690</lat>
    <lng>19.169982050</lng>
    <pop>149.0</pop>
    <country>Angola</country>
    <iso2>AO</iso2>
    <iso3>AGO</iso3>
    <province>Cuando Cubango</province>
  </row>
  <row>
    <id>136</id>
    <city>Luiana</city>
    <city_ascii>Luiana</city_ascii>
    <lat>-17.369548320</lat>
    <lng>22.999980830</lng>
    <pop>150.0</pop>
    <country>Angola</country>
    <iso2>AO</iso2>
    <iso3>AGO</iso3>
    <province>Cuando Cubango</province>
  </row>
  <row>
    <id>137</id>
    <city>Ondjiva</city>
    <city_ascii>Ondjiva</city_ascii>
    <lat>-17.069618310</lat>
    <lng>15.730036990</lng>
    <pop>8748.0</pop>
    <country>Angola</country>
    <iso2>AO</iso2>
    <iso3>AGO</iso3>
    <province>Cunene</province>
  </row>
  <row>
    <id>138</id>
    <city>Chitado</city>
    <city_ascii>Chitado</city_ascii>
    <lat>-17.319628890</lat>
    <lng>13.920018270</lng>
    <pop>468.5</pop>
    <country>Angola</country>
    <iso2>AO</iso2>
    <iso3>AGO</iso3>
    <province>Cunene</province>
  </row>
  <row>
    <id>139</id>
    <city>Chibemba</city>
    <city_ascii>Chibemba</city_ascii>
    <lat>-15.749595520</lat>
    <lng>14.080008500</lng>
    <pop>1502.0</pop>
    <country>Angola</country>
    <iso2>AO</iso2>
    <iso3>AGO</iso3>
    <province>Huíla</province>
  </row>
  <row>
    <id>140</id>
    <city>Chibia</city>
    <city_ascii>Chibia</city_ascii>
    <lat>-15.189629700</lat>
    <lng>13.690006470</lng>
    <pop>1411.0</pop>
    <country>Angola</country>
    <iso2>AO</iso2>
    <iso3>AGO</iso3>
    <province>Huíla</province>
  </row>
  <row>
    <id>141</id>
    <city>Quipungo</city>
    <city_ascii>Quipungo</city_ascii>
    <lat>-14.829548320</lat>
    <lng>14.550005650</lng>
    <pop>186.0</pop>
    <country>Angola</country>
    <iso2>AO</iso2>
    <iso3>AGO</iso3>
    <province>Huíla</province>
  </row>
  <row>
    <id>142</id>
    <city>Luau</city>
    <city_ascii>Luau</city_ascii>
    <lat>-10.709541400</lat>
    <lng>22.230001990</lng>
    <pop>9964.0</pop>
    <country>Angola</country>
    <iso2>AO</iso2>
    <iso3>AGO</iso3>
    <province>Moxico</province>
  </row>
  <row>
    <id>143</id>
    <city>Cangamba</city>
    <city_ascii>Cangamba</city_ascii>
    <lat>-13.699591450</lat>
    <lng>19.860017450</lng>
    <pop>1307.0</pop>
    <country>Angola</country>
    <iso2>AO</iso2>
    <iso3>AGO</iso3>
    <province>Moxico</province>
  </row>
  <row>
    <id>144</id>
    <city>Lumbala Nguimbo</city>
    <city_ascii>Lumbala Nguimbo</city_ascii>
    <lat>-14.099618710</lat>
    <lng>21.440024370</lng>
    <pop>25.0</pop>
    <country>Angola</country>
    <iso2>AO</iso2>
    <iso3>AGO</iso3>
    <province>Moxico</province>
  </row>
  <row>
    <id>145</id>
    <city>Cazombo</city>
    <city_ascii>Cazombo</city_ascii>
    <lat>-11.889572730</lat>
    <lng>22.900038610</lng>
    <pop>298.0</pop>
    <country>Angola</country>
    <iso2>AO</iso2>
    <iso3>AGO</iso3>
    <province>Moxico</province>
  </row>
  <row>
    <id>146</id>
    <city>Dundo</city>
    <city_ascii>Dundo</city_ascii>
    <lat>-7.380028871</lat>
    <lng>20.829984090</lng>
    <pop>11985.0</pop>
    <country>Angola</country>
    <iso2>AO</iso2>
    <iso3>AGO</iso3>
    <province>Lunda Norte</province>
  </row>
  <row>
    <id>147</id>
    <city>Ambriz</city>
    <city_ascii>Ambriz</city_ascii>
    <lat>-7.854986960</lat>
    <lng>13.125028030</lng>
    <pop>17000.0</pop>
    <country>Angola</country>
    <iso2>AO</iso2>
    <iso3>AGO</iso3>
    <province>Bengo</province>
  </row>
  <row>
    <id>148</id>
    <city>Dondo</city>
    <city_ascii>Dondo</city_ascii>
    <lat>-9.690017071</lat>
    <lng>14.430012980</lng>
    <pop>2353.0</pop>
    <country>Angola</country>
    <iso2>AO</iso2>
    <iso3>AGO</iso3>
    <province>Cuanza Norte</province>
  </row>
  <row>
    <id>149</id>
    <city>Sumbe</city>
    <city_ascii>Sumbe</city_ascii>
    <lat>-11.210027650</lat>
    <lng>13.849996700</lng>
    <pop>29638.5</pop>
    <country>Angola</country>
    <iso2>AO</iso2>
    <iso3>AGO</iso3>
    <province>Cuanza Sul</province>
  </row>
  <row>
    <id>150</id>
    <city>Uige</city>
    <city_ascii>Uige</city_ascii>
    <lat>-7.620014222</lat>
    <lng>15.049975140</lng>
    <pop>56787.5</pop>
    <country>Angola</country>
    <iso2>AO</iso2>
    <iso3>AGO</iso3>
    <province>Uíge</province>
  </row>
  <row>
    <id>151</id>
    <city>Kuito</city>
    <city_ascii>Kuito</city_ascii>
    <lat>-12.380033750</lat>
    <lng>16.939988970</lng>
    <pop>113955.0</pop>
    <country>Angola</country>
    <iso2>AO</iso2>
    <iso3>AGO</iso3>
    <province>Bié</province>
  </row>
  <row>
    <id>152</id>
    <city>Lobito</city>
    <city_ascii>Lobito</city_ascii>
    <lat>-12.370008530</lat>
    <lng>13.541230020</lng>
    <pop>170733.0</pop>
    <country>Angola</country>
    <iso2>AO</iso2>
    <iso3>AGO</iso3>
    <province>Benguela</province>
  </row>
  <row>
    <id>153</id>
    <city>Xangongo</city>
    <city_ascii>Xangongo</city_ascii>
    <lat>-16.740026020</lat>
    <lng>14.969980020</lng>
    <pop>447.0</pop>
    <country>Angola</country>
    <iso2>AO</iso2>
    <iso3>AGO</iso3>
    <province>Cunene</province>
  </row>
  <row>
    <id>154</id>
    <city>Luena</city>
    <city_ascii>Luena</city_ascii>
    <lat>-11.790043930</lat>
    <lng>19.900015010</lng>
    <pop>17276.5</pop>
    <country>Angola</country>
    <iso2>AO</iso2>
    <iso3>AGO</iso3>
    <province>Moxico</province>
  </row>
  <row>
    <id>155</id>
    <city>Tômbua</city>
    <city_ascii>Tombua</city_ascii>
    <lat>-15.800031720</lat>
    <lng>11.859988970</lng>
    <pop>40000.0</pop>
    <country>Angola</country>
    <iso2>AO</iso2>
    <iso3>AGO</iso3>
    <province>Namibe</province>
  </row>
  <row>
    <id>156</id>
    <city>Malanje</city>
    <city_ascii>Malanje</city_ascii>
    <lat>-9.540000388</lat>
    <lng>16.340025590</lng>
    <pop>106451.0</pop>
    <country>Angola</country>
    <iso2>AO</iso2>
    <iso3>AGO</iso3>
    <province>Malanje</province>
  </row>
  <row>
    <id>157</id>
    <city>Benguela</city>
    <city_ascii>Benguela</city_ascii>
    <lat>-12.578264550</lat>
    <lng>13.407233030</lng>
    <pop>142017.0</pop>
    <country>Angola</country>
    <iso2>AO</iso2>
    <iso3>AGO</iso3>
    <province>Benguela</province>
  </row>
  <row>
    <id>158</id>
    <city>Lubango</city>
    <city_ascii>Lubango</city_ascii>
    <lat>-14.910008530</lat>
    <lng>13.490018680</lng>
    <pop>114086.5</pop>
    <country>Angola</country>
    <iso2>AO</iso2>
    <iso3>AGO</iso3>
    <province>Huíla</province>
  </row>
  <row>
    <id>159</id>
    <city>Namibe</city>
    <city_ascii>Namibe</city_ascii>
    <lat>-15.190043110</lat>
    <lng>12.160022340</lng>
    <pop>128130.5</pop>
    <country>Angola</country>
    <iso2>AO</iso2>
    <iso3>AGO</iso3>
    <province>Namibe</province>
  </row>
  <row>
    <id>160</id>
    <city>Menongue</city>
    <city_ascii>Menongue</city_ascii>
    <lat>-14.666612530</lat>
    <lng>17.699994260</lng>
    <pop>13030.0</pop>
    <country>Angola</country>
    <iso2>AO</iso2>
    <iso3>AGO</iso3>
    <province>Cuando Cubango</province>
  </row>
  <row>
    <id>161</id>
    <city>Huambo</city>
    <city_ascii>Huambo</city_ascii>
    <lat>-12.749985330</lat>
    <lng>15.760009320</lng>
    <pop>986000.0</pop>
    <country>Angola</country>
    <iso2>AO</iso2>
    <iso3>AGO</iso3>
    <province>Huambo</province>
  </row>
  <row>
    <id>162</id>
    <city>Luanda</city>
    <city_ascii>Luanda</city_ascii>
    <lat>-8.838286114</lat>
    <lng>13.234427040</lng>
    <pop>3562086.0</pop>
    <country>Angola</country>
    <iso2>AO</iso2>
    <iso3>AGO</iso3>
    <province>Luanda</province>
  </row>
  <row>
    <id>163</id>
    <city>Artigas Base</city>
    <city_ascii>Artigas Base</city_ascii>
    <lat>-62.173886690</lat>
    <lng>-58.863864070</lng>
    <pop>34.5</pop>
    <country>Antarctica</country>
    <iso2>AQ</iso2>
    <iso3>ATA</iso3>
    <province></province>
  </row>
  <row>
    <id>164</id>
    <city>Capitan Arturo Prat Station</city>
    <city_ascii>Capitan Arturo Prat Station</city_ascii>
    <lat>-62.499506820</lat>
    <lng>-59.683318520</lng>
    <pop>41.0</pop>
    <country>Antarctica</country>
    <iso2>AQ</iso2>
    <iso3>ATA</iso3>
    <province></province>
  </row>
  <row>
    <id>165</id>
    <city>Marambio Station</city>
    <city_ascii>Vicecomodoro Marambio Station</city_ascii>
    <lat>-64.232889390</lat>
    <lng>-56.650015300</lng>
    <pop>102.5</pop>
    <country>Antarctica</country>
    <iso2>AQ</iso2>
    <iso3>ATA</iso3>
    <province></province>
  </row>
  <row>
    <id>166</id>
    <city>Zucchelli Station</city>
    <city_ascii>Terra Nova Bay</city_ascii>
    <lat>-74.619192590</lat>
    <lng>164.219027100</lng>
    <pop>60.0</pop>
    <country>Antarctica</country>
    <iso2>AQ</iso2>
    <iso3>ATA</iso3>
    <province></province>
  </row>
  <row>
    <id>167</id>
    <city>Rothera Station</city>
    <city_ascii>Rothera Station</city_ascii>
    <lat>-67.564775600</lat>
    <lng>-68.123540550</lng>
    <pop>76.0</pop>
    <country>Antarctica</country>
    <iso2>AQ</iso2>
    <iso3>ATA</iso3>
    <province></province>
  </row>
  <row>
    <id>168</id>
    <city>Palmer Station</city>
    <city_ascii>Palmer Station</city_ascii>
    <lat>-64.762413350</lat>
    <lng>-64.046875600</lng>
    <pop>30.5</pop>
    <country>Antarctica</country>
    <iso2>AQ</iso2>
    <iso3>ATA</iso3>
    <province></province>
  </row>
  <row>
    <id>169</id>
    <city>Base Presidente Montalva</city>
    <city_ascii>Teniente Rodolfo Marsh Station</city_ascii>
    <lat>-62.182743570</lat>
    <lng>-58.907652330</lng>
    <pop>115.0</pop>
    <country>Antarctica</country>
    <iso2>AQ</iso2>
    <iso3>ATA</iso3>
    <province></province>
  </row>
  <row>
    <id>170</id>
    <city>Carlini Station</city>
    <city_ascii>Teniente Jubany Station</city_ascii>
    <lat>-62.224143860</lat>
    <lng>-58.650475990</lng>
    <pop>40.0</pop>
    <country>Antarctica</country>
    <iso2>AQ</iso2>
    <iso3>ATA</iso3>
    <province></province>
  </row>
  <row>
    <id>171</id>
    <city>King Sejong Station</city>
    <city_ascii>King Sejong Station</city_ascii>
    <lat>-62.224853400</lat>
    <lng>-58.771598760</lng>
    <pop>53.5</pop>
    <country>Antarctica</country>
    <iso2>AQ</iso2>
    <iso3>ATA</iso3>
    <province></province>
  </row>
  <row>
    <id>172</id>
    <city>Great Wall Station</city>
    <city_ascii>Great Wall Station</city_ascii>
    <lat>-62.216319970</lat>
    <lng>-58.966695600</lng>
    <pop>26.0</pop>
    <country>Antarctica</country>
    <iso2>AQ</iso2>
    <iso3>ATA</iso3>
    <province></province>
  </row>
  <row>
    <id>173</id>
    <city>Escudero Base</city>
    <city_ascii>Escudero Station</city_ascii>
    <lat>-62.194962510</lat>
    <lng>-58.952665820</lng>
    <pop>20.0</pop>
    <country>Antarctica</country>
    <iso2>AQ</iso2>
    <iso3>ATA</iso3>
    <province></province>
  </row>
  <row>
    <id>174</id>
    <city>Elephant Island</city>
    <city_ascii>Elephant Island, South Shetland Islands</city_ascii>
    <lat>-61.999589010</lat>
    <lng>-57.999984580</lng>
    <pop>3.0</pop>
    <country>Antarctica</country>
    <iso2>AQ</iso2>
    <iso3>ATA</iso3>
    <province></province>
  </row>
  <row>
    <id>175</id>
    <city>Scott Base</city>
    <city_ascii>Scott Base</city_ascii>
    <lat>-77.846938190</lat>
    <lng>166.749102300</lng>
    <pop>49.5</pop>
    <country>Antarctica</country>
    <iso2>AQ</iso2>
    <iso3>ATA</iso3>
    <province></province>
  </row>
  <row>
    <id>176</id>
    <city>McMurdo Station</city>
    <city_ascii>McMurdo Station</city_ascii>
    <lat>-77.732282390</lat>
    <lng>166.869415700</lng>
    <pop>600.0</pop>
    <country>Antarctica</country>
    <iso2>AQ</iso2>
    <iso3>ATA</iso3>
    <province></province>
  </row>
  <row>
    <id>177</id>
    <city>Zhongshan Station</city>
    <city_ascii>Zhongshan Station</city_ascii>
    <lat>-69.434062990</lat>
    <lng>76.339298080</lng>
    <pop>42.5</pop>
    <country>Antarctica</country>
    <iso2>AQ</iso2>
    <iso3>ATA</iso3>
    <province></province>
  </row>
  <row>
    <id>178</id>
    <city>Vostok</city>
    <city_ascii>Vostok</city_ascii>
    <lat>-78.466284160</lat>
    <lng>106.800033700</lng>
    <pop>19.0</pop>
    <country>Antarctica</country>
    <iso2>AQ</iso2>
    <iso3>ATA</iso3>
    <province></province>
  </row>
  <row>
    <id>179</id>
    <city>Peter I Island</city>
    <city_ascii>Peter I Island</city_ascii>
    <lat>-68.832867010</lat>
    <lng>90.499995080</lng>
    <pop>0.5</pop>
    <country>Antarctica</country>
    <iso2>AQ</iso2>
    <iso3>ATA</iso3>
    <province></province>
  </row>
  <row>
    <id>180</id>
    <city>Mirny Station</city>
    <city_ascii>Mirny Station</city_ascii>
    <lat>-66.575529520</lat>
    <lng>93.006288460</lng>
    <pop>114.5</pop>
    <country>Antarctica</country>
    <iso2>AQ</iso2>
    <iso3>ATA</iso3>
    <province></province>
  </row>
  <row>
    <id>181</id>
    <city>Mawson Station</city>
    <city_ascii>Mawson Station</city_ascii>
    <lat>-67.614520320</lat>
    <lng>62.875000730</lng>
    <pop>40.0</pop>
    <country>Antarctica</country>
    <iso2>AQ</iso2>
    <iso3>ATA</iso3>
    <province></province>
  </row>
  <row>
    <id>182</id>
    <city>Davis Station</city>
    <city_ascii>Davis Station</city_ascii>
    <lat>-68.777674390</lat>
    <lng>78.140735090</lng>
    <pop>45.0</pop>
    <country>Antarctica</country>
    <iso2>AQ</iso2>
    <iso3>ATA</iso3>
    <province></province>
  </row>
  <row>
    <id>183</id>
    <city>Concordia Research Station</city>
    <city_ascii>Concordia Research Station</city_ascii>
    <lat>-74.666309390</lat>
    <lng>124.167035700</lng>
    <pop>15.0</pop>
    <country>Antarctica</country>
    <iso2>AQ</iso2>
    <iso3>ATA</iso3>
    <province></province>
  </row>
  <row>
    <id>184</id>
    <city>Casey Station</city>
    <city_ascii>Casey Station</city_ascii>
    <lat>-66.286086140</lat>
    <lng>110.536214000</lng>
    <pop>125.0</pop>
    <country>Antarctica</country>
    <iso2>AQ</iso2>
    <iso3>ATA</iso3>
    <province></province>
  </row>
  <row>
    <id>185</id>
    <city>AmundsenScott South Pole Station</city>
    <city_ascii>AmundsenScott South Pole Station</city_ascii>
    <lat>-89.982893860</lat>
    <lng>139.266992600</lng>
    <pop>125.0</pop>
    <country>Antarctica</country>
    <iso2>AQ</iso2>
    <iso3>ATA</iso3>
    <province></province>
  </row>
  <row>
    <id>186</id>
    <city>Wasa Station</city>
    <city_ascii>Wasa Station</city_ascii>
    <lat>-73.049612200</lat>
    <lng>-13.416711060</lng>
    <pop>5.0</pop>
    <country>Antarctica</country>
    <iso2>AQ</iso2>
    <iso3>ATA</iso3>
    <province></province>
  </row>
  <row>
    <id>187</id>
    <city>Troll Station</city>
    <city_ascii>Troll Station</city_ascii>
    <lat>-72.016290260</lat>
    <lng>2.533323119</lng>
    <pop>25.5</pop>
    <country>Antarctica</country>
    <iso2>AQ</iso2>
    <iso3>ATA</iso3>
    <province></province>
  </row>
  <row>
    <id>188</id>
    <city>Svea Station</city>
    <city_ascii>Svea Station</city_ascii>
    <lat>-74.582903630</lat>
    <lng>-11.216690310</lng>
    <pop>5.0</pop>
    <country>Antarctica</country>
    <iso2>AQ</iso2>
    <iso3>ATA</iso3>
    <province></province>
  </row>
  <row>
    <id>189</id>
    <city>Novolazarevskaya Station</city>
    <city_ascii>Novolazarevskaya Station</city_ascii>
    <lat>-71.301234750</lat>
    <lng>-11.850212900</lng>
    <pop>35.0</pop>
    <country>Antarctica</country>
    <iso2>AQ</iso2>
    <iso3>ATA</iso3>
    <province></province>
  </row>
  <row>
    <id>190</id>
    <city>Neumayer Station III</city>
    <city_ascii>Neumayer</city_ascii>
    <lat>-70.890396680</lat>
    <lng>-7.838438004</lng>
    <pop>40.0</pop>
    <country>Antarctica</country>
    <iso2>AQ</iso2>
    <iso3>ATA</iso3>
    <province></province>
  </row>
  <row>
    <id>191</id>
    <city>Maitri Station</city>
    <city_ascii>Maitri Station</city_ascii>
    <lat>-70.782179600</lat>
    <lng>11.730458400</lng>
    <pop>33.0</pop>
    <country>Antarctica</country>
    <iso2>AQ</iso2>
    <iso3>ATA</iso3>
    <province></province>
  </row>
  <row>
    <id>192</id>
    <city>Halley Station</city>
    <city_ascii>Halley Station</city_ascii>
    <lat>-76.092263190</lat>
    <lng>-26.474156700</lng>
    <pop>43.0</pop>
    <country>Antarctica</country>
    <iso2>AQ</iso2>
    <iso3>ATA</iso3>
    <province></province>
  </row>
  <row>
    <id>193</id>
    <city>Belgrano Station</city>
    <city_ascii>General Belgrano Station</city_ascii>
    <lat>-77.866320780</lat>
    <lng>-34.616683190</lng>
    <pop>57.0</pop>
    <country>Antarctica</country>
    <iso2>AQ</iso2>
    <iso3>ATA</iso3>
    <province></province>
  </row>
  <row>
    <id>194</id>
    <city>Camp Sobral</city>
    <city_ascii>Doctor Sobral</city_ascii>
    <lat>-81.179084720</lat>
    <lng>-40.501531520</lng>
    <pop>20.0</pop>
    <country>Antarctica</country>
    <iso2>AQ</iso2>
    <iso3>ATA</iso3>
    <province></province>
  </row>
  <row>
    <id>195</id>
    <city>Aboa Station</city>
    <city_ascii>Aboa Station</city_ascii>
    <lat>-75.049593490</lat>
    <lng>-13.416711060</lng>
    <pop>15.0</pop>
    <country>Antarctica</country>
    <iso2>AQ</iso2>
    <iso3>ATA</iso3>
    <province></province>
  </row>
  <row>
    <id>196</id>
    <city>San Martín Station</city>
    <city_ascii>San Martín Station</city_ascii>
    <lat>-68.116321600</lat>
    <lng>-67.099997600</lng>
    <pop>19.0</pop>
    <country>Antarctica</country>
    <iso2>AQ</iso2>
    <iso3>ATA</iso3>
    <province></province>
  </row>
  <row>
    <id>197</id>
    <city>Gen. O'Higgins Station</city>
    <city_ascii>General Bernado O'Higgins Station</city_ascii>
    <lat>-63.328418230</lat>
    <lng>-57.889593520</lng>
    <pop>30.0</pop>
    <country>Antarctica</country>
    <iso2>AQ</iso2>
    <iso3>ATA</iso3>
    <province></province>
  </row>
  <row>
    <id>198</id>
    <city>Esperanza Station</city>
    <city_ascii>Esperanza Station</city_ascii>
    <lat>-63.375328650</lat>
    <lng>-57.025901510</lng>
    <pop>152.5</pop>
    <country>Antarctica</country>
    <iso2>AQ</iso2>
    <iso3>ATA</iso3>
    <province></province>
  </row>
  <row>
    <id>199</id>
    <city>Orcadas Station</city>
    <city_ascii>Orcadas Station</city_ascii>
    <lat>-60.732896300</lat>
    <lng>-44.733300820</lng>
    <pop>29.5</pop>
    <country>Antarctica</country>
    <iso2>AQ</iso2>
    <iso3>ATA</iso3>
    <province></province>
  </row>
  <row>
    <id>200</id>
    <city>Signy Research Station</city>
    <city_ascii>Signy Island</city_ascii>
    <lat>-60.631308150</lat>
    <lng>-45.600703320</lng>
    <pop>4.0</pop>
    <country>Antarctica</country>
    <iso2>AQ</iso2>
    <iso3>ATA</iso3>
    <province></province>
  </row>
  <row>
    <id>201</id>
    <city>Dumont d'Urville Station</city>
    <city_ascii>Dumont d'Urville Station</city_ascii>
    <lat>-66.775050910</lat>
    <lng>139.963683600</lng>
    <pop>75.0</pop>
    <country>Antarctica</country>
    <iso2>AQ</iso2>
    <iso3>ATA</iso3>
    <province></province>
  </row>
  <row>
    <id>202</id>
    <city>Showa Station</city>
    <city_ascii>Showa Station</city_ascii>
    <lat>-69.030392490</lat>
    <lng>39.746083100</lng>
    <pop>50.0</pop>
    <country>Antarctica</country>
    <iso2>AQ</iso2>
    <iso3>ATA</iso3>
    <province></province>
  </row>
  <row>
    <id>203</id>
    <city>Saint John's</city>
    <city_ascii>Saint John's</city_ascii>
    <lat>17.118036520</lat>
    <lng>-61.850033820</lng>
    <pop>29862.5</pop>
    <country>Antigua and Barbuda</country>
    <iso2>AG</iso2>
    <iso3>ATG</iso3>
    <province></province>
  </row>
  <row>
    <id>204</id>
    <city>28 de Noviembre</city>
    <city_ascii>28 de Noviembre</city_ascii>
    <lat>-51.650039860</lat>
    <lng>-72.300016120</lng>
    <pop>5300.0</pop>
    <country>Argentina</country>
    <iso2>AR</iso2>
    <iso3>ARG</iso3>
    <province>Santa Cruz</province>
  </row>
  <row>
    <id>205</id>
    <city>Gobernador Gregores</city>
    <city_ascii>Gobernador Gregores</city_ascii>
    <lat>-48.766598290</lat>
    <lng>-70.250012050</lng>
    <pop>2519.0</pop>
    <country>Argentina</country>
    <iso2>AR</iso2>
    <iso3>ARG</iso3>
    <province>Santa Cruz</province>
  </row>
  <row>
    <id>206</id>
    <city>Comondante Luis Piedrabuena</city>
    <city_ascii>Comondante Luis Piedrabuena</city_ascii>
    <lat>-49.974548650</lat>
    <lng>-68.903472730</lng>
    <pop>410.0</pop>
    <country>Argentina</country>
    <iso2>AR</iso2>
    <iso3>ARG</iso3>
    <province>Santa Cruz</province>
  </row>
  <row>
    <id>207</id>
    <city>Paso Rio Mayo</city>
    <city_ascii>Paso Rio Mayo</city_ascii>
    <lat>-45.683375630</lat>
    <lng>-70.266574340</lng>
    <pop>1825.0</pop>
    <country>Argentina</country>
    <iso2>AR</iso2>
    <iso3>ARG</iso3>
    <province>Chubut</province>
  </row>
  <row>
    <id>208</id>
    <city>Alto Rio Sanguer</city>
    <city_ascii>Alto Rio Sanguer</city_ascii>
    <lat>-45.033286110</lat>
    <lng>-70.833283940</lng>
    <pop>1548.0</pop>
    <country>Argentina</country>
    <iso2>AR</iso2>
    <iso3>ARG</iso3>
    <province>Chubut</province>
  </row>
  <row>
    <id>209</id>
    <city>El Maiten</city>
    <city_ascii>El Maiten</city_ascii>
    <lat>-42.050005680</lat>
    <lng>-71.166622760</lng>
    <pop>4269.0</pop>
    <country>Argentina</country>
    <iso2>AR</iso2>
    <iso3>ARG</iso3>
    <province>Chubut</province>
  </row>
  <row>
    <id>210</id>
    <city>Puerto Madryn</city>
    <city_ascii>Puerto Madryn</city_ascii>
    <lat>-42.770013410</lat>
    <lng>-65.040019980</lng>
    <pop>61159.0</pop>
    <country>Argentina</country>
    <iso2>AR</iso2>
    <iso3>ARG</iso3>
    <province>Chubut</province>
  </row>
  <row>
    <id>211</id>
    <city>Trelew</city>
    <city_ascii>Trelew</city_ascii>
    <lat>-43.250035790</lat>
    <lng>-65.329950600</lng>
    <pop>93128.5</pop>
    <country>Argentina</country>
    <iso2>AR</iso2>
    <iso3>ARG</iso3>
    <province>Chubut</province>
  </row>
  <row>
    <id>212</id>
    <city>Las Heras</city>
    <city_ascii>Las Heras</city_ascii>
    <lat>-32.825039040</lat>
    <lng>-68.801676680</lng>
    <pop>66663.0</pop>
    <country>Argentina</country>
    <iso2>AR</iso2>
    <iso3>ARG</iso3>
    <province>Mendoza</province>
  </row>
  <row>
    <id>213</id>
    <city>San Martin</city>
    <city_ascii>San Martin</city_ascii>
    <lat>-33.069985330</lat>
    <lng>-68.490016120</lng>
    <pop>99974.0</pop>
    <country>Argentina</country>
    <iso2>AR</iso2>
    <iso3>ARG</iso3>
    <province>Mendoza</province>
  </row>
  <row>
    <id>214</id>
    <city>Uspallata</city>
    <city_ascii>Uspallata</city_ascii>
    <lat>-32.593115220</lat>
    <lng>-69.345984540</lng>
    <pop>2390.0</pop>
    <country>Argentina</country>
    <iso2>AR</iso2>
    <iso3>ARG</iso3>
    <province>Mendoza</province>
  </row>
  <row>
    <id>215</id>
    <city>Cutral Co</city>
    <city_ascii>Cutral Co</city_ascii>
    <lat>-38.940014630</lat>
    <lng>-69.240022020</lng>
    <pop>47597.0</pop>
    <country>Argentina</country>
    <iso2>AR</iso2>
    <iso3>ARG</iso3>
    <province>Neuquén</province>
  </row>
  <row>
    <id>216</id>
    <city>Punta Alta</city>
    <city_ascii>Punta Alta</city_ascii>
    <lat>-38.879966620</lat>
    <lng>-62.079968100</lng>
    <pop>55969.5</pop>
    <country>Argentina</country>
    <iso2>AR</iso2>
    <iso3>ARG</iso3>
    <province>Ciudad de Buenos Aires</province>
  </row>
  <row>
    <id>217</id>
    <city>San Nicolas</city>
    <city_ascii>San Nicolas</city_ascii>
    <lat>-33.330021140</lat>
    <lng>-60.240002890</lng>
    <pop>117123.5</pop>
    <country>Argentina</country>
    <iso2>AR</iso2>
    <iso3>ARG</iso3>
    <province>Ciudad de Buenos Aires</province>
  </row>
  <row>
    <id>218</id>
    <city>Campana</city>
    <city_ascii>Campana</city_ascii>
    <lat>-34.159996320</lat>
    <lng>-58.959977660</lng>
    <pop>77149.5</pop>
    <country>Argentina</country>
    <iso2>AR</iso2>
    <iso3>ARG</iso3>
    <province>Ciudad de Buenos Aires</province>
  </row>
  <row>
    <id>219</id>
    <city>Chacabuco</city>
    <city_ascii>Chacabuco</city_ascii>
    <lat>-34.650043930</lat>
    <lng>-60.489987630</lng>
    <pop>26645.0</pop>
    <country>Argentina</country>
    <iso2>AR</iso2>
    <iso3>ARG</iso3>
    <province>Ciudad de Buenos Aires</province>
  </row>
  <row>
    <id>220</id>
    <city>Mercedes</city>
    <city_ascii>Mercedes</city_ascii>
    <lat>-34.660017480</lat>
    <lng>-59.440025880</lng>
    <pop>48408.5</pop>
    <country>Argentina</country>
    <iso2>AR</iso2>
    <iso3>ARG</iso3>
    <province>Ciudad de Buenos Aires</province>
  </row>
  <row>
    <id>221</id>
    <city>Lincoln</city>
    <city_ascii>Lincoln</city_ascii>
    <lat>-34.880004050</lat>
    <lng>-61.539949380</lng>
    <pop>19924.0</pop>
    <country>Argentina</country>
    <iso2>AR</iso2>
    <iso3>ARG</iso3>
    <province>Ciudad de Buenos Aires</province>
  </row>
  <row>
    <id>222</id>
    <city>Chivilcoy</city>
    <city_ascii>Chivilcoy</city_ascii>
    <lat>-34.899951150</lat>
    <lng>-60.039989260</lng>
    <pop>43719.0</pop>
    <country>Argentina</country>
    <iso2>AR</iso2>
    <iso3>ARG</iso3>
    <province>Ciudad de Buenos Aires</province>
  </row>
  <row>
    <id>223</id>
    <city>Veinticinco de Mayo</city>
    <city_ascii>Veinticinco de Mayo</city_ascii>
    <lat>-35.429996320</lat>
    <lng>-60.179980710</lng>
    <pop>18749.0</pop>
    <country>Argentina</country>
    <iso2>AR</iso2>
    <iso3>ARG</iso3>
    <province>Ciudad de Buenos Aires</province>
  </row>
  <row>
    <id>224</id>
    <city>Nueve de Julio</city>
    <city_ascii>Nueve de Julio</city_ascii>
    <lat>-35.445964340</lat>
    <lng>-60.889989060</lng>
    <pop>26716.0</pop>
    <country>Argentina</country>
    <iso2>AR</iso2>
    <iso3>ARG</iso3>
    <province>Ciudad de Buenos Aires</province>
  </row>
  <row>
    <id>225</id>
    <city>Dolores</city>
    <city_ascii>Dolores</city_ascii>
    <lat>-36.330044740</lat>
    <lng>-57.689977660</lng>
    <pop>21586.5</pop>
    <country>Argentina</country>
    <iso2>AR</iso2>
    <iso3>ARG</iso3>
    <province>Ciudad de Buenos Aires</province>
  </row>
  <row>
    <id>226</id>
    <city>Pedro Luro</city>
    <city_ascii>Pedro Luro</city_ascii>
    <lat>-39.483340640</lat>
    <lng>-62.683316290</lng>
    <pop>7100.0</pop>
    <country>Argentina</country>
    <iso2>AR</iso2>
    <iso3>ARG</iso3>
    <province>Ciudad de Buenos Aires</province>
  </row>
  <row>
    <id>227</id>
    <city>Tres Arroyos</city>
    <city_ascii>Tres Arroyos</city_ascii>
    <lat>-38.369971900</lat>
    <lng>-60.269949380</lng>
    <pop>34773.5</pop>
    <country>Argentina</country>
    <iso2>AR</iso2>
    <iso3>ARG</iso3>
    <province>Ciudad de Buenos Aires</province>
  </row>
  <row>
    <id>228</id>
    <city>Coronel Suarez</city>
    <city_ascii>Coronel Suarez</city_ascii>
    <lat>-37.466616190</lat>
    <lng>-61.916618900</lng>
    <pop>20713.0</pop>
    <country>Argentina</country>
    <iso2>AR</iso2>
    <iso3>ARG</iso3>
    <province>Ciudad de Buenos Aires</province>
  </row>
  <row>
    <id>229</id>
    <city>Balcarce</city>
    <city_ascii>Balcarce</city_ascii>
    <lat>-37.833312160</lat>
    <lng>-58.249995160</lng>
    <pop>18967.0</pop>
    <country>Argentina</country>
    <iso2>AR</iso2>
    <iso3>ARG</iso3>
    <province>Ciudad de Buenos Aires</province>
  </row>
  <row>
    <id>230</id>
    <city>25 de Mayo</city>
    <city_ascii>25 de Mayo</city_ascii>
    <lat>-37.800032530</lat>
    <lng>-67.683295330</lng>
    <pop>17430.0</pop>
    <country>Argentina</country>
    <iso2>AR</iso2>
    <iso3>ARG</iso3>
    <province>Río Negro</province>
  </row>
  <row>
    <id>231</id>
    <city>General Roca</city>
    <city_ascii>General Roca</city_ascii>
    <lat>-39.019958070</lat>
    <lng>-67.609966470</lng>
    <pop>38578.0</pop>
    <country>Argentina</country>
    <iso2>AR</iso2>
    <iso3>ARG</iso3>
    <province>Río Negro</province>
  </row>
  <row>
    <id>232</id>
    <city>Comallo</city>
    <city_ascii>Comallo</city_ascii>
    <lat>-41.033323550</lat>
    <lng>-70.266574340</lng>
    <pop>741.0</pop>
    <country>Argentina</country>
    <iso2>AR</iso2>
    <iso3>ARG</iso3>
    <province>Río Negro</province>
  </row>
  <row>
    <id>233</id>
    <city>Ingeniero Jacobacci</city>
    <city_ascii>Ingeniero Jacobacci</city_ascii>
    <lat>-41.300025620</lat>
    <lng>-69.583308550</lng>
    <pop>5719.0</pop>
    <country>Argentina</country>
    <iso2>AR</iso2>
    <iso3>ARG</iso3>
    <province>Río Negro</province>
  </row>
  <row>
    <id>234</id>
    <city>General Conesa</city>
    <city_ascii>General Conesa</city_ascii>
    <lat>-40.100047180</lat>
    <lng>-64.433286990</lng>
    <pop>2958.0</pop>
    <country>Argentina</country>
    <iso2>AR</iso2>
    <iso3>ARG</iso3>
    <province>Río Negro</province>
  </row>
  <row>
    <id>235</id>
    <city>Choele Choel</city>
    <city_ascii>Choele Choel</city_ascii>
    <lat>-39.266609680</lat>
    <lng>-65.683314050</lng>
    <pop>9895.5</pop>
    <country>Argentina</country>
    <iso2>AR</iso2>
    <iso3>ARG</iso3>
    <province>Río Negro</province>
  </row>
  <row>
    <id>236</id>
    <city>San Francisco</city>
    <city_ascii>San Francisco</city_ascii>
    <lat>-31.430033750</lat>
    <lng>-62.089967490</lng>
    <pop>43231.0</pop>
    <country>Argentina</country>
    <iso2>AR</iso2>
    <iso3>ARG</iso3>
    <province>Córdoba</province>
  </row>
  <row>
    <id>237</id>
    <city>Alta Gracia</city>
    <city_ascii>Alta Gracia</city_ascii>
    <lat>-31.659993880</lat>
    <lng>-64.429979700</lng>
    <pop>30593.0</pop>
    <country>Argentina</country>
    <iso2>AR</iso2>
    <iso3>ARG</iso3>
    <province>Córdoba</province>
  </row>
  <row>
    <id>238</id>
    <city>Villa Maria</city>
    <city_ascii>Villa Maria</city_ascii>
    <lat>-32.410025620</lat>
    <lng>-63.260025270</lng>
    <pop>76701.0</pop>
    <country>Argentina</country>
    <iso2>AR</iso2>
    <iso3>ARG</iso3>
    <province>Córdoba</province>
  </row>
  <row>
    <id>239</id>
    <city>Bell Ville</city>
    <city_ascii>Bell Ville</city_ascii>
    <lat>-32.600039860</lat>
    <lng>-62.679957320</lng>
    <pop>29605.0</pop>
    <country>Argentina</country>
    <iso2>AR</iso2>
    <iso3>ARG</iso3>
    <province>Córdoba</province>
  </row>
  <row>
    <id>240</id>
    <city>Villa Rumipal</city>
    <city_ascii>Villa Rumipal</city_ascii>
    <lat>-32.183321110</lat>
    <lng>-64.483283940</lng>
    <pop>1269.0</pop>
    <country>Argentina</country>
    <iso2>AR</iso2>
    <iso3>ARG</iso3>
    <province>Córdoba</province>
  </row>
  <row>
    <id>241</id>
    <city>Villa Carlos Paz</city>
    <city_ascii>Villa Carlos Paz</city_ascii>
    <lat>-31.420008530</lat>
    <lng>-64.500001260</lng>
    <pop>60256.0</pop>
    <country>Argentina</country>
    <iso2>AR</iso2>
    <iso3>ARG</iso3>
    <province>Córdoba</province>
  </row>
  <row>
    <id>242</id>
    <city>Chumbicha</city>
    <city_ascii>Chumbicha</city_ascii>
    <lat>-28.866624330</lat>
    <lng>-66.233306320</lng>
    <pop>2572.0</pop>
    <country>Argentina</country>
    <iso2>AR</iso2>
    <iso3>ARG</iso3>
    <province>Catamarca</province>
  </row>
  <row>
    <id>243</id>
    <city>Tinogasta</city>
    <city_ascii>Tinogasta</city_ascii>
    <lat>-28.066621480</lat>
    <lng>-67.566584110</lng>
    <pop>587.0</pop>
    <country>Argentina</country>
    <iso2>AR</iso2>
    <iso3>ARG</iso3>
    <province>Catamarca</province>
  </row>
  <row>
    <id>244</id>
    <city>Abra Pampa</city>
    <city_ascii>Abra Pampa</city_ascii>
    <lat>-22.716663800</lat>
    <lng>-65.699979700</lng>
    <pop>4480.0</pop>
    <country>Argentina</country>
    <iso2>AR</iso2>
    <iso3>ARG</iso3>
    <province>Jujuy</province>
  </row>
  <row>
    <id>245</id>
    <city>Humahuaca</city>
    <city_ascii>Humahuaca</city_ascii>
    <lat>-23.199993470</lat>
    <lng>-65.349949380</lng>
    <pop>11369.0</pop>
    <country>Argentina</country>
    <iso2>AR</iso2>
    <iso3>ARG</iso3>
    <province>Jujuy</province>
  </row>
  <row>
    <id>246</id>
    <city>Susques</city>
    <city_ascii>Susques</city_ascii>
    <lat>-23.416672750</lat>
    <lng>-66.483316900</lng>
    <pop>1093.0</pop>
    <country>Argentina</country>
    <iso2>AR</iso2>
    <iso3>ARG</iso3>
    <province>Jujuy</province>
  </row>
  <row>
    <id>247</id>
    <city>Chepes</city>
    <city_ascii>Chepes</city_ascii>
    <lat>-31.349986960</lat>
    <lng>-66.599950600</lng>
    <pop>6020.0</pop>
    <country>Argentina</country>
    <iso2>AR</iso2>
    <iso3>ARG</iso3>
    <province>La Rioja</province>
  </row>
  <row>
    <id>248</id>
    <city>Yacuiba</city>
    <city_ascii>Yacuiba</city_ascii>
    <lat>-22.030039040</lat>
    <lng>-63.699998410</lng>
    <pop>64811.0</pop>
    <country>Argentina</country>
    <iso2>AR</iso2>
    <iso3>ARG</iso3>
    <province>Salta</province>
  </row>
  <row>
    <id>249</id>
    <city>Tartagal</city>
    <city_ascii>Tartagal</city_ascii>
    <lat>-22.550007310</lat>
    <lng>-63.810017540</lng>
    <pop>59996.5</pop>
    <country>Argentina</country>
    <iso2>AR</iso2>
    <iso3>ARG</iso3>
    <province>Salta</province>
  </row>
  <row>
    <id>250</id>
    <city>Joaquin V. Gonzalez</city>
    <city_ascii>Joaquin V. Gonzalez</city_ascii>
    <lat>-25.083341050</lat>
    <lng>-64.183353920</lng>
    <pop>13376.0</pop>
    <country>Argentina</country>
    <iso2>AR</iso2>
    <iso3>ARG</iso3>
    <province>Salta</province>
  </row>
  <row>
    <id>251</id>
    <city>General Guemes</city>
    <city_ascii>General Guemes</city_ascii>
    <lat>-24.666622300</lat>
    <lng>-65.049967690</lng>
    <pop>19828.0</pop>
    <country>Argentina</country>
    <iso2>AR</iso2>
    <iso3>ARG</iso3>
    <province>Salta</province>
  </row>
  <row>
    <id>252</id>
    <city>Trancas</city>
    <city_ascii>Trancas</city_ascii>
    <lat>-26.216656880</lat>
    <lng>-65.283312620</lng>
    <pop>1599.0</pop>
    <country>Argentina</country>
    <iso2>AR</iso2>
    <iso3>ARG</iso3>
    <province>Tucumán</province>
  </row>
  <row>
    <id>253</id>
    <city>Presidencia Roque Saenz Pena</city>
    <city_ascii>Presidencia Roque Saenz Pena</city_ascii>
    <lat>-26.790006900</lat>
    <lng>-60.450015910</lng>
    <pop>75958.0</pop>
    <country>Argentina</country>
    <iso2>AR</iso2>
    <iso3>ARG</iso3>
    <province>Chaco</province>
  </row>
  <row>
    <id>254</id>
    <city>Pampa del Infierno</city>
    <city_ascii>Pampa del Infierno</city_ascii>
    <lat>-26.516586890</lat>
    <lng>-61.166587160</lng>
    <pop>2921.0</pop>
    <country>Argentina</country>
    <iso2>AR</iso2>
    <iso3>ARG</iso3>
    <province>Chaco</province>
  </row>
  <row>
    <id>255</id>
    <city>Villa Angela</city>
    <city_ascii>Villa Angela</city_ascii>
    <lat>-27.583291810</lat>
    <lng>-60.716666300</lng>
    <pop>30051.0</pop>
    <country>Argentina</country>
    <iso2>AR</iso2>
    <iso3>ARG</iso3>
    <province>Chaco</province>
  </row>
  <row>
    <id>256</id>
    <city>Ingeniero Guillermo N. Juarez</city>
    <city_ascii>Ingeniero Guillermo N. Juarez</city_ascii>
    <lat>-23.900002420</lat>
    <lng>-61.849982140</lng>
    <pop>6453.0</pop>
    <country>Argentina</country>
    <iso2>AR</iso2>
    <iso3>ARG</iso3>
    <province>Formosa</province>
  </row>
  <row>
    <id>257</id>
    <city>Comandante Fontana</city>
    <city_ascii>Comandante Fontana</city_ascii>
    <lat>-25.333299950</lat>
    <lng>-59.683318520</lng>
    <pop>4277.0</pop>
    <country>Argentina</country>
    <iso2>AR</iso2>
    <iso3>ARG</iso3>
    <province>Formosa</province>
  </row>
  <row>
    <id>258</id>
    <city>Doctor Pedro P. Pena</city>
    <city_ascii>Doctor Pedro P. Pena</city_ascii>
    <lat>-22.479985740</lat>
    <lng>-62.299980510</lng>
    <pop>6143.0</pop>
    <country>Argentina</country>
    <iso2>AR</iso2>
    <iso3>ARG</iso3>
    <province>Formosa</province>
  </row>
  <row>
    <id>259</id>
    <city>San Lorenzo</city>
    <city_ascii>San Lorenzo</city_ascii>
    <lat>-28.120003240</lat>
    <lng>-58.769989260</lng>
    <pop>25833.5</pop>
    <country>Argentina</country>
    <iso2>AR</iso2>
    <iso3>ARG</iso3>
    <province>Corrientes</province>
  </row>
  <row>
    <id>260</id>
    <city>Corrientes</city>
    <city_ascii>Corrientes</city_ascii>
    <lat>-27.489964170</lat>
    <lng>-58.809986820</lng>
    <pop>339945.0</pop>
    <country>Argentina</country>
    <iso2>AR</iso2>
    <iso3>ARG</iso3>
    <province>Corrientes</province>
  </row>
  <row>
    <id>261</id>
    <city>Concepcion del Uruguay</city>
    <city_ascii>Concepcion del Uruguay</city_ascii>
    <lat>-32.479995510</lat>
    <lng>-58.239995770</lng>
    <pop>48275.0</pop>
    <country>Argentina</country>
    <iso2>AR</iso2>
    <iso3>ARG</iso3>
    <province>Entre Ríos</province>
  </row>
  <row>
    <id>262</id>
    <city>Victoria</city>
    <city_ascii>Victoria</city_ascii>
    <lat>-32.610013410</lat>
    <lng>-60.179980710</lng>
    <pop>20032.5</pop>
    <country>Argentina</country>
    <iso2>AR</iso2>
    <iso3>ARG</iso3>
    <province>Entre Ríos</province>
  </row>
  <row>
    <id>263</id>
    <city>Gualeguay</city>
    <city_ascii>Gualeguay</city_ascii>
    <lat>-33.150032130</lat>
    <lng>-59.340006150</lng>
    <pop>25913.0</pop>
    <country>Argentina</country>
    <iso2>AR</iso2>
    <iso3>ARG</iso3>
    <province>Entre Ríos</province>
  </row>
  <row>
    <id>264</id>
    <city>Parana</city>
    <city_ascii>Parana</city_ascii>
    <lat>-31.733322730</lat>
    <lng>-60.533344160</lng>
    <pop>226852.0</pop>
    <country>Argentina</country>
    <iso2>AR</iso2>
    <iso3>ARG</iso3>
    <province>Entre Ríos</province>
  </row>
  <row>
    <id>265</id>
    <city>Villa Constitucion</city>
    <city_ascii>Villa Constitucion</city_ascii>
    <lat>-33.230027240</lat>
    <lng>-60.350022020</lng>
    <pop>30282.5</pop>
    <country>Argentina</country>
    <iso2>AR</iso2>
    <iso3>ARG</iso3>
    <province>Santa Fe</province>
  </row>
  <row>
    <id>266</id>
    <city>Rafaela</city>
    <city_ascii>Rafaela</city_ascii>
    <lat>-31.250044740</lat>
    <lng>-61.499977660</lng>
    <pop>69649.0</pop>
    <country>Argentina</country>
    <iso2>AR</iso2>
    <iso3>ARG</iso3>
    <province>Santa Fe</province>
  </row>
  <row>
    <id>267</id>
    <city>Eldorado</city>
    <city_ascii>Eldorado</city_ascii>
    <lat>-26.200017070</lat>
    <lng>-54.599985390</lng>
    <pop>17365.0</pop>
    <country>Argentina</country>
    <iso2>AR</iso2>
    <iso3>ARG</iso3>
    <province>Misiones</province>
  </row>
  <row>
    <id>268</id>
    <city>Rodeo</city>
    <city_ascii>Rodeo</city_ascii>
    <lat>-30.215585920</lat>
    <lng>-69.139950600</lng>
    <pop>701.0</pop>
    <country>Argentina</country>
    <iso2>AR</iso2>
    <iso3>ARG</iso3>
    <province>San Juan</province>
  </row>
  <row>
    <id>269</id>
    <city>Las Plumas</city>
    <city_ascii>Las Plumas</city_ascii>
    <lat>-43.416278870</lat>
    <lng>-67.249988450</lng>
    <pop>605.0</pop>
    <country>Argentina</country>
    <iso2>AR</iso2>
    <iso3>ARG</iso3>
    <province>Chubut</province>
  </row>
  <row>
    <id>270</id>
    <city>Gastre</city>
    <city_ascii>Gastre</city_ascii>
    <lat>-42.282963030</lat>
    <lng>-69.233304080</lng>
    <pop>557.0</pop>
    <country>Argentina</country>
    <iso2>AR</iso2>
    <iso3>ARG</iso3>
    <province>Chubut</province>
  </row>
  <row>
    <id>271</id>
    <city>Telsen</city>
    <city_ascii>Telsen</city_ascii>
    <lat>-42.399596740</lat>
    <lng>-66.950006760</lng>
    <pop>493.0</pop>
    <country>Argentina</country>
    <iso2>AR</iso2>
    <iso3>ARG</iso3>
    <province>Chubut</province>
  </row>
  <row>
    <id>272</id>
    <city>Malargue</city>
    <city_ascii>Malargue</city_ascii>
    <lat>-35.466118150</lat>
    <lng>-69.583308550</lng>
    <pop>11847.0</pop>
    <country>Argentina</country>
    <iso2>AR</iso2>
    <iso3>ARG</iso3>
    <province>Mendoza</province>
  </row>
  <row>
    <id>273</id>
    <city>Tunuyan</city>
    <city_ascii>Tunuyan</city_ascii>
    <lat>-33.566182440</lat>
    <lng>-69.016676470</lng>
    <pop>22834.0</pop>
    <country>Argentina</country>
    <iso2>AR</iso2>
    <iso3>ARG</iso3>
    <province>Mendoza</province>
  </row>
  <row>
    <id>274</id>
    <city>La Paz</city>
    <city_ascii>La Paz</city_ascii>
    <lat>-33.466136860</lat>
    <lng>-67.549995970</lng>
    <pop>4400.0</pop>
    <country>Argentina</country>
    <iso2>AR</iso2>
    <iso3>ARG</iso3>
    <province>Mendoza</province>
  </row>
  <row>
    <id>275</id>
    <city>Chos Malal</city>
    <city_ascii>Chos Malal</city_ascii>
    <lat>-37.382952050</lat>
    <lng>-70.266574340</lng>
    <pop>8556.0</pop>
    <country>Argentina</country>
    <iso2>AR</iso2>
    <iso3>ARG</iso3>
    <province>Neuquén</province>
  </row>
  <row>
    <id>276</id>
    <city>Las Lajas</city>
    <city_ascii>Las Lajas</city_ascii>
    <lat>-38.516267880</lat>
    <lng>-70.366594080</lng>
    <pop>1218.0</pop>
    <country>Argentina</country>
    <iso2>AR</iso2>
    <iso3>ARG</iso3>
    <province>Neuquén</province>
  </row>
  <row>
    <id>277</id>
    <city>Zarate</city>
    <city_ascii>Zarate</city_ascii>
    <lat>-34.089561340</lat>
    <lng>-59.040024460</lng>
    <pop>86192.0</pop>
    <country>Argentina</country>
    <iso2>AR</iso2>
    <iso3>ARG</iso3>
    <province>Ciudad de Buenos Aires</province>
  </row>
  <row>
    <id>278</id>
    <city>Carhue</city>
    <city_ascii>Carhue</city_ascii>
    <lat>-37.182860900</lat>
    <lng>-62.733313230</lng>
    <pop>7190.0</pop>
    <country>Argentina</country>
    <iso2>AR</iso2>
    <iso3>ARG</iso3>
    <province>Ciudad de Buenos Aires</province>
  </row>
  <row>
    <id>279</id>
    <city>Darregueira</city>
    <city_ascii>Darregueira</city_ascii>
    <lat>-37.699573550</lat>
    <lng>-63.166594280</lng>
    <pop>3412.0</pop>
    <country>Argentina</country>
    <iso2>AR</iso2>
    <iso3>ARG</iso3>
    <province>Ciudad de Buenos Aires</province>
  </row>
  <row>
    <id>280</id>
    <city>Juarez</city>
    <city_ascii>Juarez</city_ascii>
    <lat>-37.665518780</lat>
    <lng>-59.800029750</lng>
    <pop>10609.0</pop>
    <country>Argentina</country>
    <iso2>AR</iso2>
    <iso3>ARG</iso3>
    <province>Ciudad de Buenos Aires</province>
  </row>
  <row>
    <id>281</id>
    <city>Mar de Ajo</city>
    <city_ascii>Mar de Ajo</city_ascii>
    <lat>-36.716222720</lat>
    <lng>-56.676602830</lng>
    <pop>13610.0</pop>
    <country>Argentina</country>
    <iso2>AR</iso2>
    <iso3>ARG</iso3>
    <province>Ciudad de Buenos Aires</province>
  </row>
  <row>
    <id>282</id>
    <city>Lobos</city>
    <city_ascii>Lobos</city_ascii>
    <lat>-35.184895000</lat>
    <lng>-59.094672280</lng>
    <pop>18278.0</pop>
    <country>Argentina</country>
    <iso2>AR</iso2>
    <iso3>ARG</iso3>
    <province>Ciudad de Buenos Aires</province>
  </row>
  <row>
    <id>283</id>
    <city>Chascomus</city>
    <city_ascii>Chascomus</city_ascii>
    <lat>-35.566215390</lat>
    <lng>-58.016624390</lng>
    <pop>21054.0</pop>
    <country>Argentina</country>
    <iso2>AR</iso2>
    <iso3>ARG</iso3>
    <province>Ciudad de Buenos Aires</province>
  </row>
  <row>
    <id>284</id>
    <city>Junin</city>
    <city_ascii>Junin</city_ascii>
    <lat>-34.584569890</lat>
    <lng>-60.958873740</lng>
    <pop>66141.5</pop>
    <country>Argentina</country>
    <iso2>AR</iso2>
    <iso3>ARG</iso3>
    <province>Ciudad de Buenos Aires</province>
  </row>
  <row>
    <id>285</id>
    <city>La Plata</city>
    <city_ascii>La Plata</city_ascii>
    <lat>-34.909614650</lat>
    <lng>-57.959961180</lng>
    <pop>440388.5</pop>
    <country>Argentina</country>
    <iso2>AR</iso2>
    <iso3>ARG</iso3>
    <province>Ciudad de Buenos Aires</province>
  </row>
  <row>
    <id>286</id>
    <city>Pergamino</city>
    <city_ascii>Pergamino</city_ascii>
    <lat>-33.899598780</lat>
    <lng>-60.569982750</lng>
    <pop>71448.0</pop>
    <country>Argentina</country>
    <iso2>AR</iso2>
    <iso3>ARG</iso3>
    <province>Ciudad de Buenos Aires</province>
  </row>
  <row>
    <id>287</id>
    <city>Lujan</city>
    <city_ascii>Lujan</city_ascii>
    <lat>-34.579608950</lat>
    <lng>-59.109994350</lng>
    <pop>69744.5</pop>
    <country>Argentina</country>
    <iso2>AR</iso2>
    <iso3>ARG</iso3>
    <province>Ciudad de Buenos Aires</province>
  </row>
  <row>
    <id>288</id>
    <city>Azul</city>
    <city_ascii>Azul</city_ascii>
    <lat>-36.779629700</lat>
    <lng>-59.869999640</lng>
    <pop>43407.5</pop>
    <country>Argentina</country>
    <iso2>AR</iso2>
    <iso3>ARG</iso3>
    <province>Ciudad de Buenos Aires</province>
  </row>
  <row>
    <id>289</id>
    <city>Villalonga</city>
    <city_ascii>Villalonga</city_ascii>
    <lat>-39.882851140</lat>
    <lng>-62.583322390</lng>
    <pop>2838.0</pop>
    <country>Argentina</country>
    <iso2>AR</iso2>
    <iso3>ARG</iso3>
    <province>Ciudad de Buenos Aires</province>
  </row>
  <row>
    <id>290</id>
    <city>Victorica</city>
    <city_ascii>Victorica</city_ascii>
    <lat>-36.216253240</lat>
    <lng>-65.450020790</lng>
    <pop>4458.0</pop>
    <country>Argentina</country>
    <iso2>AR</iso2>
    <iso3>ARG</iso3>
    <province>La Pampa</province>
  </row>
  <row>
    <id>291</id>
    <city>General Pico</city>
    <city_ascii>General Pico</city_ascii>
    <lat>-35.659594710</lat>
    <lng>-63.770019980</lng>
    <pop>46483.0</pop>
    <country>Argentina</country>
    <iso2>AR</iso2>
    <iso3>ARG</iso3>
    <province>La Pampa</province>
  </row>
  <row>
    <id>292</id>
    <city>San Antonio Oeste</city>
    <city_ascii>San Antonio Oeste</city_ascii>
    <lat>-40.732876770</lat>
    <lng>-64.933282310</lng>
    <pop>8492.0</pop>
    <country>Argentina</country>
    <iso2>AR</iso2>
    <iso3>ARG</iso3>
    <province>Río Negro</province>
  </row>
  <row>
    <id>293</id>
    <city>Sierra Colorado</city>
    <city_ascii>Sierra Colorado</city_ascii>
    <lat>-40.582860090</lat>
    <lng>-67.799980710</lng>
    <pop>1522.0</pop>
    <country>Argentina</country>
    <iso2>AR</iso2>
    <iso3>ARG</iso3>
    <province>Río Negro</province>
  </row>
  <row>
    <id>294</id>
    <city>Mercedes</city>
    <city_ascii>Mercedes</city_ascii>
    <lat>-33.689585760</lat>
    <lng>-65.469967900</lng>
    <pop>49345.0</pop>
    <country>Argentina</country>
    <iso2>AR</iso2>
    <iso3>ARG</iso3>
    <province>San Luis</province>
  </row>
  <row>
    <id>295</id>
    <city>Rio Tercero</city>
    <city_ascii>Rio Tercero</city_ascii>
    <lat>-32.179600400</lat>
    <lng>-64.120024460</lng>
    <pop>38049.5</pop>
    <country>Argentina</country>
    <iso2>AR</iso2>
    <iso3>ARG</iso3>
    <province>Córdoba</province>
  </row>
  <row>
    <id>296</id>
    <city>Belen</city>
    <city_ascii>Belen</city_ascii>
    <lat>-27.649592670</lat>
    <lng>-67.033283330</lng>
    <pop>11359.0</pop>
    <country>Argentina</country>
    <iso2>AR</iso2>
    <iso3>ARG</iso3>
    <province>Catamarca</province>
  </row>
  <row>
    <id>297</id>
    <city>Rinconada</city>
    <city_ascii>Rinconada</city_ascii>
    <lat>-22.432908510</lat>
    <lng>-66.166592040</lng>
    <pop>6209.5</pop>
    <country>Argentina</country>
    <iso2>AR</iso2>
    <iso3>ARG</iso3>
    <province>Jujuy</province>
  </row>
  <row>
    <id>298</id>
    <city>San Pedro</city>
    <city_ascii>San Pedro</city_ascii>
    <lat>-24.219621160</lat>
    <lng>-64.870004520</lng>
    <pop>55249.0</pop>
    <country>Argentina</country>
    <iso2>AR</iso2>
    <iso3>ARG</iso3>
    <province>Jujuy</province>
  </row>
  <row>
    <id>299</id>
    <city>Libertador General San Martin</city>
    <city_ascii>Libertador General San Martin</city_ascii>
    <lat>-23.819542220</lat>
    <lng>-64.789983560</lng>
    <pop>47559.0</pop>
    <country>Argentina</country>
    <iso2>AR</iso2>
    <iso3>ARG</iso3>
    <province>Jujuy</province>
  </row>
  <row>
    <id>300</id>
    <city>Chilecito</city>
    <city_ascii>Chilecito</city_ascii>
    <lat>-29.165520810</lat>
    <lng>-67.499999030</lng>
    <pop>20343.0</pop>
    <country>Argentina</country>
    <iso2>AR</iso2>
    <iso3>ARG</iso3>
    <province>La Rioja</province>
  </row>
  <row>
    <id>301</id>
    <city>Chamical</city>
    <city_ascii>Chamical</city_ascii>
    <lat>-30.349582910</lat>
    <lng>-66.316660400</lng>
    <pop>8989.0</pop>
    <country>Argentina</country>
    <iso2>AR</iso2>
    <iso3>ARG</iso3>
    <province>La Rioja</province>
  </row>
  <row>
    <id>302</id>
    <city>Los Blancos</city>
    <city_ascii>Los Blancos</city_ascii>
    <lat>-23.599607320</lat>
    <lng>-62.600039720</lng>
    <pop>1145.0</pop>
    <country>Argentina</country>
    <iso2>AR</iso2>
    <iso3>ARG</iso3>
    <province>Salta</province>
  </row>
  <row>
    <id>303</id>
    <city>Cafayate</city>
    <city_ascii>Cafayate</city_ascii>
    <lat>-26.082918280</lat>
    <lng>-65.966604250</lng>
    <pop>9478.0</pop>
    <country>Argentina</country>
    <iso2>AR</iso2>
    <iso3>ARG</iso3>
    <province>Salta</province>
  </row>
  <row>
    <id>304</id>
    <city>Cerrillos</city>
    <city_ascii>Cerrillos</city_ascii>
    <lat>-24.899631330</lat>
    <lng>-65.483300420</lng>
    <pop>11498.0</pop>
    <country>Argentina</country>
    <iso2>AR</iso2>
    <iso3>ARG</iso3>
    <province>Salta</province>
  </row>
  <row>
    <id>305</id>
    <city>San Antonio de los Cobres</city>
    <city_ascii>San Antonio de los Cobres</city_ascii>
    <lat>-24.182930890</lat>
    <lng>-66.350017540</lng>
    <pop>4000.0</pop>
    <country>Argentina</country>
    <iso2>AR</iso2>
    <iso3>ARG</iso3>
    <province>Salta</province>
  </row>
  <row>
    <id>306</id>
    <city>Anatuya</city>
    <city_ascii>Anatuya</city_ascii>
    <lat>-28.466131980</lat>
    <lng>-62.833307130</lng>
    <pop>14133.0</pop>
    <country>Argentina</country>
    <iso2>AR</iso2>
    <iso3>ARG</iso3>
    <province>Santiago del Estero</province>
  </row>
  <row>
    <id>307</id>
    <city>Frias</city>
    <city_ascii>Frias</city_ascii>
    <lat>-28.649583310</lat>
    <lng>-65.149987430</lng>
    <pop>13594.0</pop>
    <country>Argentina</country>
    <iso2>AR</iso2>
    <iso3>ARG</iso3>
    <province>Santiago del Estero</province>
  </row>
  <row>
    <id>308</id>
    <city>Monte Quemado</city>
    <city_ascii>Monte Quemado</city_ascii>
    <lat>-25.799628070</lat>
    <lng>-62.866586750</lng>
    <pop>11387.0</pop>
    <country>Argentina</country>
    <iso2>AR</iso2>
    <iso3>ARG</iso3>
    <province>Santiago del Estero</province>
  </row>
  <row>
    <id>309</id>
    <city>Juan Jose Castelli</city>
    <city_ascii>Juan Jose Castelli</city_ascii>
    <lat>-25.949541400</lat>
    <lng>-60.616646570</lng>
    <pop>9421.0</pop>
    <country>Argentina</country>
    <iso2>AR</iso2>
    <iso3>ARG</iso3>
    <province>Chaco</province>
  </row>
  <row>
    <id>310</id>
    <city>Charata</city>
    <city_ascii>Charata</city_ascii>
    <lat>-27.216285790</lat>
    <lng>-61.199995970</lng>
    <pop>18297.0</pop>
    <country>Argentina</country>
    <iso2>AR</iso2>
    <iso3>ARG</iso3>
    <province>Chaco</province>
  </row>
  <row>
    <id>311</id>
    <city>Las Lomitas</city>
    <city_ascii>Las Lomitas</city_ascii>
    <lat>-24.699591860</lat>
    <lng>-60.600006760</lng>
    <pop>7683.0</pop>
    <country>Argentina</country>
    <iso2>AR</iso2>
    <iso3>ARG</iso3>
    <province>Formosa</province>
  </row>
  <row>
    <id>312</id>
    <city>Mercedes</city>
    <city_ascii>Mercedes</city_ascii>
    <lat>-29.179576800</lat>
    <lng>-58.079979700</lng>
    <pop>22872.5</pop>
    <country>Argentina</country>
    <iso2>AR</iso2>
    <iso3>ARG</iso3>
    <province>Corrientes</province>
  </row>
  <row>
    <id>313</id>
    <city>Concordia</city>
    <city_ascii>Concordia</city_ascii>
    <lat>-31.389571110</lat>
    <lng>-58.029982750</lng>
    <pop>132760.5</pop>
    <country>Argentina</country>
    <iso2>AR</iso2>
    <iso3>ARG</iso3>
    <province>Entre Ríos</province>
  </row>
  <row>
    <id>314</id>
    <city>Sunchales</city>
    <city_ascii>Sunchales</city_ascii>
    <lat>-30.932906480</lat>
    <lng>-61.566614420</lng>
    <pop>12655.0</pop>
    <country>Argentina</country>
    <iso2>AR</iso2>
    <iso3>ARG</iso3>
    <province>Santa Fe</province>
  </row>
  <row>
    <id>315</id>
    <city>San Justo</city>
    <city_ascii>San Justo</city_ascii>
    <lat>-30.782889790</lat>
    <lng>-60.583289430</lng>
    <pop>9607.0</pop>
    <country>Argentina</country>
    <iso2>AR</iso2>
    <iso3>ARG</iso3>
    <province>Santa Fe</province>
  </row>
  <row>
    <id>316</id>
    <city>Vera</city>
    <city_ascii>Vera</city_ascii>
    <lat>-29.466174300</lat>
    <lng>-60.216593470</lng>
    <pop>9979.0</pop>
    <country>Argentina</country>
    <iso2>AR</iso2>
    <iso3>ARG</iso3>
    <province>Santa Fe</province>
  </row>
  <row>
    <id>317</id>
    <city>Reconquista</city>
    <city_ascii>Reconquista</city_ascii>
    <lat>-29.139527570</lat>
    <lng>-59.650013060</lng>
    <pop>86640.5</pop>
    <country>Argentina</country>
    <iso2>AR</iso2>
    <iso3>ARG</iso3>
    <province>Santa Fe</province>
  </row>
  <row>
    <id>318</id>
    <city>Venado Tuerto</city>
    <city_ascii>Venado Tuerto</city_ascii>
    <lat>-33.749582090</lat>
    <lng>-61.970000650</lng>
    <pop>52079.0</pop>
    <country>Argentina</country>
    <iso2>AR</iso2>
    <iso3>ARG</iso3>
    <province>Santa Fe</province>
  </row>
  <row>
    <id>319</id>
    <city>Esquel</city>
    <city_ascii>Esquel</city_ascii>
    <lat>-42.900031310</lat>
    <lng>-71.316613610</lng>
    <pop>20048.0</pop>
    <country>Argentina</country>
    <iso2>AR</iso2>
    <iso3>ARG</iso3>
    <province>Chubut</province>
  </row>
  <row>
    <id>320</id>
    <city>Zapala</city>
    <city_ascii>Zapala</city_ascii>
    <lat>-38.900017070</lat>
    <lng>-70.066664060</lng>
    <pop>19152.0</pop>
    <country>Argentina</country>
    <iso2>AR</iso2>
    <iso3>ARG</iso3>
    <province>Neuquén</province>
  </row>
  <row>
    <id>321</id>
    <city>Olavarria</city>
    <city_ascii>Olavarria</city_ascii>
    <lat>-36.900035790</lat>
    <lng>-60.329997400</lng>
    <pop>65059.0</pop>
    <country>Argentina</country>
    <iso2>AR</iso2>
    <iso3>ARG</iso3>
    <province>Ciudad de Buenos Aires</province>
  </row>
  <row>
    <id>322</id>
    <city>Tandil</city>
    <city_ascii>Tandil</city_ascii>
    <lat>-37.320010150</lat>
    <lng>-59.150043580</lng>
    <pop>84799.5</pop>
    <country>Argentina</country>
    <iso2>AR</iso2>
    <iso3>ARG</iso3>
    <province>Ciudad de Buenos Aires</province>
  </row>
  <row>
    <id>323</id>
    <city>Viedma</city>
    <city_ascii>Viedma</city_ascii>
    <lat>-40.799952780</lat>
    <lng>-63.000015300</lng>
    <pop>54031.0</pop>
    <country>Argentina</country>
    <iso2>AR</iso2>
    <iso3>ARG</iso3>
    <province>Ciudad de Buenos Aires</province>
  </row>
  <row>
    <id>324</id>
    <city>San Luis</city>
    <city_ascii>San Luis</city_ascii>
    <lat>-33.299997130</lat>
    <lng>-66.350017540</lng>
    <pop>308146.0</pop>
    <country>Argentina</country>
    <iso2>AR</iso2>
    <iso3>ARG</iso3>
    <province>San Luis</province>
  </row>
  <row>
    <id>325</id>
    <city>Rio Cuarto</city>
    <city_ascii>Rio Cuarto</city_ascii>
    <lat>-33.130033350</lat>
    <lng>-64.349984580</lng>
    <pop>135959.5</pop>
    <country>Argentina</country>
    <iso2>AR</iso2>
    <iso3>ARG</iso3>
    <province>Córdoba</province>
  </row>
  <row>
    <id>326</id>
    <city>San Salvador de Jujuy</city>
    <city_ascii>San Salvador de Jujuy</city_ascii>
    <lat>-24.183344300</lat>
    <lng>-65.300029950</lng>
    <pop>258739.0</pop>
    <country>Argentina</country>
    <iso2>AR</iso2>
    <iso3>ARG</iso3>
    <province>Jujuy</province>
  </row>
  <row>
    <id>327</id>
    <city>San Ramon de la Nueva Oran</city>
    <city_ascii>San Ramon de la Nueva Oran</city_ascii>
    <lat>-23.139997130</lat>
    <lng>-64.320012250</lng>
    <pop>69461.5</pop>
    <country>Argentina</country>
    <iso2>AR</iso2>
    <iso3>ARG</iso3>
    <province>Salta</province>
  </row>
  <row>
    <id>328</id>
    <city>Goya</city>
    <city_ascii>Goya</city_ascii>
    <lat>-29.139992660</lat>
    <lng>-59.269984580</lng>
    <pop>71274.5</pop>
    <country>Argentina</country>
    <iso2>AR</iso2>
    <iso3>ARG</iso3>
    <province>Corrientes</province>
  </row>
  <row>
    <id>329</id>
    <city>Puerto San Julian</city>
    <city_ascii>Puerto San Julian</city_ascii>
    <lat>-49.300002420</lat>
    <lng>-67.716652470</lng>
    <pop>2347.0</pop>
    <country>Argentina</country>
    <iso2>AR</iso2>
    <iso3>ARG</iso3>
    <province>Santa Cruz</province>
  </row>
  <row>
    <id>330</id>
    <city>Perito Moreno</city>
    <city_ascii>Perito Moreno</city_ascii>
    <lat>-46.600012190</lat>
    <lng>-70.933355350</lng>
    <pop>3766.0</pop>
    <country>Argentina</country>
    <iso2>AR</iso2>
    <iso3>ARG</iso3>
    <province>Santa Cruz</province>
  </row>
  <row>
    <id>331</id>
    <city>Rio Grande</city>
    <city_ascii>Rio Grande</city_ascii>
    <lat>-53.791445520</lat>
    <lng>-67.698995200</lng>
    <pop>31095.0</pop>
    <country>Argentina</country>
    <iso2>AR</iso2>
    <iso3>ARG</iso3>
    <province>Tierra del Fuego</province>
  </row>
  <row>
    <id>332</id>
    <city>Ushuaia</city>
    <city_ascii>Ushuaia</city_ascii>
    <lat>-54.790003240</lat>
    <lng>-68.310001260</lng>
    <pop>50483.5</pop>
    <country>Argentina</country>
    <iso2>AR</iso2>
    <iso3>ARG</iso3>
    <province>Tierra del Fuego</province>
  </row>
  <row>
    <id>333</id>
    <city>Sarmiento</city>
    <city_ascii>Sarmiento</city_ascii>
    <lat>-45.600021550</lat>
    <lng>-69.083313230</lng>
    <pop>5185.0</pop>
    <country>Argentina</country>
    <iso2>AR</iso2>
    <iso3>ARG</iso3>
    <province>Chubut</province>
  </row>
  <row>
    <id>334</id>
    <city>San Rafael</city>
    <city_ascii>San Rafael</city_ascii>
    <lat>-34.600021140</lat>
    <lng>-68.333333170</lng>
    <pop>79523.5</pop>
    <country>Argentina</country>
    <iso2>AR</iso2>
    <iso3>ARG</iso3>
    <province>Mendoza</province>
  </row>
  <row>
    <id>335</id>
    <city>Necochea</city>
    <city_ascii>Necochea</city_ascii>
    <lat>-38.559986150</lat>
    <lng>-58.749990480</lng>
    <pop>70562.0</pop>
    <country>Argentina</country>
    <iso2>AR</iso2>
    <iso3>ARG</iso3>
    <province>Ciudad de Buenos Aires</province>
  </row>
  <row>
    <id>336</id>
    <city>Rio Colorado</city>
    <city_ascii>Rio Colorado</city_ascii>
    <lat>-38.966576320</lat>
    <lng>-64.083282510</lng>
    <pop>11499.0</pop>
    <country>Argentina</country>
    <iso2>AR</iso2>
    <iso3>ARG</iso3>
    <province>La Pampa</province>
  </row>
  <row>
    <id>337</id>
    <city>Catamarca</city>
    <city_ascii>Catamarca</city_ascii>
    <lat>-28.470007710</lat>
    <lng>-65.780000650</lng>
    <pop>162586.0</pop>
    <country>Argentina</country>
    <iso2>AR</iso2>
    <iso3>ARG</iso3>
    <province>Catamarca</province>
  </row>
  <row>
    <id>338</id>
    <city>La Rioja</city>
    <city_ascii>La Rioja</city_ascii>
    <lat>-29.409950340</lat>
    <lng>-66.849961180</lng>
    <pop>147130.0</pop>
    <country>Argentina</country>
    <iso2>AR</iso2>
    <iso3>ARG</iso3>
    <province>La Rioja</province>
  </row>
  <row>
    <id>339</id>
    <city>Santiago del Estero</city>
    <city_ascii>Santiago del Estero</city_ascii>
    <lat>-27.783331280</lat>
    <lng>-64.266656330</lng>
    <pop>317549.5</pop>
    <country>Argentina</country>
    <iso2>AR</iso2>
    <iso3>ARG</iso3>
    <province>Santiago del Estero</province>
  </row>
  <row>
    <id>340</id>
    <city>Resistencia</city>
    <city_ascii>Resistencia</city_ascii>
    <lat>-27.459991840</lat>
    <lng>-58.990027510</lng>
    <pop>368455.5</pop>
    <country>Argentina</country>
    <iso2>AR</iso2>
    <iso3>ARG</iso3>
    <province>Chaco</province>
  </row>
  <row>
    <id>341</id>
    <city>Gualeguaychu</city>
    <city_ascii>Gualeguaychu</city_ascii>
    <lat>-33.020014220</lat>
    <lng>-58.520004520</lng>
    <pop>55860.5</pop>
    <country>Argentina</country>
    <iso2>AR</iso2>
    <iso3>ARG</iso3>
    <province>Entre Ríos</province>
  </row>
  <row>
    <id>342</id>
    <city>El Calafate</city>
    <city_ascii>El Calafate</city_ascii>
    <lat>-50.333324360</lat>
    <lng>-72.300016120</lng>
    <pop>6329.0</pop>
    <country>Argentina</country>
    <iso2>AR</iso2>
    <iso3>ARG</iso3>
    <province>Santa Cruz</province>
  </row>
  <row>
    <id>343</id>
    <city>San Juan</city>
    <city_ascii>San Juan</city_ascii>
    <lat>-31.550026430</lat>
    <lng>-68.519988450</lng>
    <pop>433892.0</pop>
    <country>Argentina</country>
    <iso2>AR</iso2>
    <iso3>ARG</iso3>
    <province>San Juan</province>
  </row>
  <row>
    <id>344</id>
    <city>Rawson</city>
    <city_ascii>Rawson</city_ascii>
    <lat>-43.300006900</lat>
    <lng>-65.099990480</lng>
    <pop>25062.5</pop>
    <country>Argentina</country>
    <iso2>AR</iso2>
    <iso3>ARG</iso3>
    <province>Chubut</province>
  </row>
  <row>
    <id>345</id>
    <city>Neuquen</city>
    <city_ascii>Neuquen</city_ascii>
    <lat>-38.950039860</lat>
    <lng>-68.059990680</lng>
    <pop>213823.5</pop>
    <country>Argentina</country>
    <iso2>AR</iso2>
    <iso3>ARG</iso3>
    <province>Neuquén</province>
  </row>
  <row>
    <id>346</id>
    <city>Santa Rosa</city>
    <city_ascii>Santa Rosa</city_ascii>
    <lat>-36.620001200</lat>
    <lng>-64.299987630</lng>
    <pop>97693.5</pop>
    <country>Argentina</country>
    <iso2>AR</iso2>
    <iso3>ARG</iso3>
    <province>La Pampa</province>
  </row>
  <row>
    <id>347</id>
    <city>San Carlos de Bariloche</city>
    <city_ascii>San Carlos de Bariloche</city_ascii>
    <lat>-41.149957260</lat>
